name,latitude,longitude,address,review,savecount,visitorreviewscore,flow_pop,bus_N,parking_N,cafe_N,bicycle_N,subway_N,school_N,dongcode,aver_sales,subway_d,store_N,rest_N,day_pop,night_pop
장꼬방,37.4983656,127.0237366,서울 서초구 강남대로61길 27,"1,020","7,000",4.45,7906,48,0,39,6,1,6,2120189,44883635.7075,392.5832055129019,97,65,681735.8,531999.19
시그니처랩 반포점,37.5045735,127.0061311,서울 서초구 신반포로 194 서울고속버스터미널 경부영동선 1층 승차홈 1번,"1,756","3,000",4.62,6537,16,41,26,8,1,0,2130299,38853853.23529412,108.05298626081414,41,27,681735.8,531999.19
하프커피 파미에스테이션점,37.5032859,127.004939,서울 서초구 사평대로 205 센트럴시티 파미에스테이션 2층 FP212호,"5,700","11,000",4.5,6537,19,41,25,7,1,0,2120167,50628679.46875,169.47278910666563,39,25,681735.8,531999.19
태양커피,37.4794454,126.9826833,서울 서초구 방배천로 32 송암빌딩 1층,543,"14,000",4.59,1095,24,188,64,7,1,4,2130274,231194935.0952381,335.9342743248085,151,105,681735.8,531999.19
프릳츠 양재점,37.4853569,127.0322383,서울 서초구 강남대로37길 24-11,"4,077","26,000",4.5,2415,30,1,13,7,1,8,2120179,20831863.30656934,250.34227000737775,24,16,681735.8,531999.19
거북이,37.4802043,126.9833927,서울 서초구 방배천로4안길 48 1층,228,"10,000",4.61,926,20,200,58,6,1,4,2110905,50000000.0,435.4682816278212,139,97,681735.8,531999.19
공미학,37.4887001,127.012415,서울 서초구 서초대로48길 101 그룹메가타워 1F,"1,644","13,000",4.4,1889,27,26,25,4,0,4,2110928,665508.0,528.177682797982,57,26,681735.8,531999.19
kuun,37.5064027,127.022479,서울 서초구 강남대로83길 18 104호,60,300,,1381,19,3,21,6,1,2,2120177,20463120.8,303.4866839241417,51,34,681735.8,531999.19
오쎄,37.479445,126.9835591,서울 서초구 방배천로4안길 32 103~203호,882,"7,000",4.61,926,25,187,57,7,1,2,2120163,3529162.0,363.8844749059211,136,95,681735.8,531999.19
잔상,37.4721358,127.0407532,서울 서초구 언남1길 3,174,"2,000",4.93,7288,20,6,20,6,1,6,2110940,9503001.666666666,312.39626469778824,20,7,681735.8,531999.19
스타벅스 서울웨이브아트센터점,37.518807,127.00704,서울 서초구 잠원로 145-35,"2,191","24,000",4.45,565,2,0,1,2,0,2,2110927,3677229.6666666665,766.9313354221886,1,1,681735.8,531999.19
생각이나서,37.4770621,126.9854602,서울 서초구 청두곶길 4 1층,129,900,,1749,31,98,40,5,1,4,2120163,3529162.0,338.3535753796136,93,62,681735.8,531999.19
누볼라,37.4943933,127.0277115,서울 서초구 강남대로53길 12 솔라티움시티 3층 307호,28,"1,000",,9575,38,1,25,4,1,6,2120189,44883635.7075,309.8896855987456,67,37,681735.8,531999.19
타르타르 강남역점,37.4989021,127.0255752,서울 서초구 강남대로61길 13,642,"5,000",,1243,47,0,59,5,1,4,2120189,44883635.7075,282.64858124875724,136,89,681735.8,531999.19
비푸스,37.502667,127.0230356,서울 서초구 서운로26길 11 1층,75,"1,000",,1759,37,2,50,8,1,4,2120187,28000951.298245613,279.27354909401777,109,75,681735.8,531999.19
교대플랫다이닝카페,37.4929659,127.0153077,서울 서초구 서초중앙로22길 22-7,"1,036","3,000",4.72,5879,27,2,25,3,1,2,2120173,19655228.49222798,119.27141297516062,50,28,681735.8,531999.19
화이트리에,37.5073916,127.007896,서울 서초구 신반포로 219 1층 1호,"1,271","3,000",4.48,3715,19,39,21,6,2,6,2130300,,349.0545515421692,30,15,681735.8,531999.19
메종엠오,37.4893305,126.9941173,서울 서초구 방배로26길 22 1층 코너,959,"22,000",4.54,545,27,2,27,4,1,0,2120164,29038882.303370785,197.74518715877716,40,18,681735.8,531999.19
쓰리버즈 센트럴시티점,37.5051329,127.009629,서울 서초구 사평대로 205 쓰리버즈,576,"6,000",4.33,6537,21,41,16,6,2,4,2130299,38853853.23529412,385.8733899831964,30,19,681735.8,531999.19
카페 노티드 서래,37.4912953,126.9934709,서울 서초구 방배로32길 30-9 101호,"3,429","14,000",4.43,580,25,1,25,5,1,0,2110919,,408.9145394201993,43,21,681735.8,531999.19
카페 노티드 강남 카카오,37.5008052,127.0257918,서울 서초구 강남대로 429,"7,196","9,000",4.53,1504,42,1,67,7,2,4,2110954,128207013.75,426.6527250110456,146,97,681735.8,531999.19
루엘드파리,37.4840594,127.0173499,서울 서초구 서초중앙로 18 서초쌍용플래티넘 112호,"3,625","41,000",4.49,11103,28,0,11,4,1,2,2120175,17033856.711340208,147.4311094816851,25,10,681735.8,531999.19
10월 19일,37.4811896,127.0106047,서울 서초구 반포대로3길 31 101호,127,"13,000",,5078,25,0,12,4,0,2,2120171,29243434.5,650.8003376247223,22,12,681735.8,531999.19
쿄 베이커리 X 카페더인피닛,37.5035232,127.0237556,서울 서초구 사평대로58길 6,"1,581","6,000",4.44,1504,38,2,50,6,1,0,2120187,28000951.298245613,165.9004246185081,114,77,681735.8,531999.19
던킨 라이브 강남,37.4960842,127.0281406,서울 서초구 강남대로 373 홍우빌딩 1층,"5,082","4,000",4.46,3486,37,1,35,5,1,4,2120189,44883635.7075,122.76025260385003,96,60,681735.8,531999.19
비파티세리 센트럴시티점,37.5038768,127.0049583,서울 서초구 신반포로 176 신세계 센트럴시티 1층 116호,"2,158","2,000",4.46,6537,22,40,26,8,1,0,2120167,50628679.46875,103.77602551085798,40,26,681735.8,531999.19
카페 토다,37.4675311,127.0226535,서울 서초구 성촌6길 39,"1,432","12,000",4.47,1918,13,0,3,1,0,4,2110931,25792031.580645163,1418.7751510229589,3,1,681735.8,531999.19
카페마마스 강남역점,37.4960673,127.0254658,서울 서초구 서운로 138 서초동아타워 1F,"1,784","6,000",4.42,12987,44,0,36,6,1,6,2120189,44883635.7075,249.55550492288685,84,51,681735.8,531999.19
헬무트커피,37.4799984,126.9828934,서울 서초구 방배천로6길 3-10 헬무트커피,595,"13,000",4.45,1095,18,200,59,6,1,4,2130274,231194935.0952381,400.138808014165,144,101,681735.8,531999.19
밤부 베이커리&브루잉 서래,37.4931788,126.990916,서울 서초구 동광로 77,637,"7,000",4.42,766,27,33,16,4,0,2,2110912,51520578.277777776,659.4213604548812,30,15,681735.8,531999.19
쿠오레에스프레소,37.4879004,127.0320099,서울 서초구 강남대로 275 강남 MAIN TOWER,746,"9,000",4.67,2966,28,1,14,6,1,6,2110960,,477.1522975670183,27,15,681735.8,531999.19
태양커피,37.4901729,126.9929332,서울 서초구 서초대로25길 55 1층,871,"32,000",4.56,1068,30,1,27,4,1,0,2110914,,288.66132115572185,43,21,681735.8,531999.19
포비 강남,37.5029494,127.0044067,서울 서초구 사평대로 205 센트럴시티 파미에스테이션 1층 106호,"2,950","3,000",4.47,6537,20,0,23,7,1,0,2120167,50628679.46875,212.22951979181957,37,24,681735.8,531999.19
오우아,37.4794871,126.9828726,서울 서초구 방배천로6길 3-4 1층,625,"15,000",4.36,1095,25,188,62,7,1,4,2130274,231194935.0952381,345.1112411865245,146,102,681735.8,531999.19
더플라잉팬레드,37.4981017,127.0258448,서울 서초구 서초대로 411 지티타워 지하1층,767,"11,000",4.37,1243,47,0,45,5,1,6,2120189,44883635.7075,210.5426979555174,114,75,681735.8,531999.19
챱챱케이크,37.4915323,127.0142896,서울 서초구 서초중앙로 110 104호,102,"5,000",,4077,27,3,31,2,1,2,2120173,19655228.49222798,210.1621193592757,59,31,681735.8,531999.19
프리퍼,37.4820737,127.0114945,서울 서초구 반포대로5길 4 성원빌딩 1층,502,"7,000",4.53,13416,27,0,12,5,0,4,2120171,29243434.5,527.6406698707407,22,12,681735.8,531999.19
몬탁,37.4883312,126.9969986,서울 서초구 서초대로32길 8 1층,101,"8,000",,545,19,1,24,4,1,2,2120164,29038882.303370785,317.5991140527538,38,19,681735.8,531999.19
카페 멜리떼,37.4913818,127.0143297,"서울 서초구 서초중앙로 108 1층, 2층",190,"1,000",,4077,26,3,31,2,1,2,2120173,19655228.49222798,227.1526338189115,59,30,681735.8,531999.19
참새방앗간,37.4809666,126.9834186,서울 서초구 방배천로4안길 66 1층,332,"4,000",4.79,1071,19,200,58,6,0,4,2110905,50000000.0,516.5020937024668,143,100,681735.8,531999.19
빽다방 신사사거리점,37.5158042,127.0192293,서울 서초구 강남대로 605 휴먼타워 1층,"3,171","2,000",4.47,3232,13,8,24,5,1,0,2120178,18636748.65,97.77020549903214,55,32,681735.8,531999.19
밀도 강남역점,37.499878,127.0263321,서울 서초구 강남대로 419 무인양품 1층 내 밀도,70,"4,000",4.64,809,43,1,72,5,1,4,2120189,44883635.7075,331.82553014499666,152,100,681735.8,531999.19
푸슈,37.487857,126.9918042,서울 서초구 서초대로19길 10-11 1층,453,"5,000",4.95,1721,29,2,28,6,1,2,2110914,,153.09421696275962,43,18,681735.8,531999.19
파티시안,37.4894524,126.9933941,서울 서초구 서초대로25길 37,476,"2,000",4.82,1068,31,2,29,5,1,0,2120164,29038882.303370785,204.2458459296056,44,21,681735.8,531999.19
플랫 오,37.476545,127.0401514,서울 서초구 양재천로 103-1 1층 (서울특별시 서초구 양재동 97-5 1층),96,"7,000",,1136,25,1,20,5,0,0,2120181,12088743.94117647,741.1353868056925,21,7,681735.8,531999.19
서래케이크,37.4986392,126.9974098,서울 서초구 서래로7길 15,62,"2,000",,4648,19,3,17,3,0,10,2120165,35367164.69565217,546.9604869756583,29,13,681735.8,531999.19
수프링,37.4792883,126.9833628,서울 서초구 방배천로4안길 26 1층,183,"2,000",4.64,503,25,181,61,7,1,2,2130274,231194935.0952381,340.57408591424627,147,102,681735.8,531999.19
캐틀앤비 양재점,37.4788818,127.0420836,서울 서초구 양재천로 131 1층,"3,401","13,000",,1065,24,24,14,6,0,0,2120183,4997543.19047619,880.4644402320117,18,7,681735.8,531999.19
율목커피,37.4804317,126.9841042,서울 서초구 방배천로8길 26 율목커피,72,500,,1548,25,199,51,4,1,2,2110905,50000000.0,483.5263197896872,125,86,681735.8,531999.19
라바트리,37.4894862,126.994078,서울 서초구 서초대로27길 33 지하 1층,282,"2,000",4.7,545,27,2,28,4,1,0,2120164,29038882.303370785,213.6322323047708,43,21,681735.8,531999.19
포용 그릭 요거트,37.4750183,126.9821689,서울 서초구 과천대로 946 상가동 1층 8호,444,500,,1000,27,69,38,7,1,2,2120160,19067511.342592597,173.43276532486294,97,66,681735.8,531999.19
심재,37.4682477,127.0429469,서울 서초구 동산로2길 40,573,"7,000",4.38,907,20,5,9,6,1,6,2120182,25808544.67924528,445.6236309538229,11,6,681735.8,531999.19
MAILLET,37.4990083,126.9976042,서울 서초구 사평대로22길 14,"1,206","27,000",4.27,4648,19,3,18,3,0,10,2120165,35367164.69565217,511.9045348554671,29,12,681735.8,531999.19
소울브레드,37.4713585,127.0242925,서울 서초구 바우뫼로7길 27 동양고속아파트 동양상가 201호,444,"16,000",4.61,384,7,0,2,2,0,2,2110934,12715983.363636363,1255.5872280358967,2,1,681735.8,531999.19
스타벅스 파미에파크R점,37.5030521,127.004362,서울 서초구 사평대로 205,"4,982","6,000",4.47,6537,20,0,23,7,1,0,2120167,50628679.46875,202.0771094181212,37,24,681735.8,531999.19
곤트란쉐리에 강남역점,37.5005084,127.0259253,서울 서초구 강남대로65길 1,748,"1,000",,809,41,1,69,7,2,4,2110954,128207013.75,410.5348032590984,147,97,681735.8,531999.19
토다 서초,37.4854099,127.0124897,서울 서초구 반포대로14길 26 드림타워 1층,753,"3,000",4.55,4691,33,0,22,4,1,2,2120172,15487229.586206896,329.375848088442,40,16,681735.8,531999.19
세컨브레스,37.4760738,127.0397954,"서울 서초구 양재천로 95-2 태영빌딩 1층, 세컨브레스",335,"7,000",4.56,1136,22,2,20,5,0,0,2120181,12088743.94117647,683.6798550665399,22,8,681735.8,531999.19
37.5 청계산점,37.4450365,127.0579402,서울 서초구 청계산로 229-4,456,"1,000",4.41,298,3,2,3,2,1,0,2110946,15958090.0,314.3927595774061,5,2,681735.8,531999.19
어보브 더 힐,37.4870806,126.9890974,서울 서초구 방배중앙로13길 2 1층,49,200,,5944,27,2,18,6,1,6,2110910,264315.3333333333,394.1529747909422,28,9,681735.8,531999.19
누아주 베이커리,37.4918157,126.9895995,서울 서초구 방배로33길 20 1층,131,700,,597,24,33,20,5,0,0,2110912,51520578.277777776,580.5943395018153,35,20,681735.8,531999.19
카페 아뜰리에,37.4772628,126.985118,서울 서초구 방배천로4길 48 1층,83,"3,000",4.53,519,32,101,42,5,1,4,2120163,3529162.0,313.70977362137893,106,74,681735.8,531999.19
에이리셉션,37.4762371,127.0423842,"서울 서초구 마방로 44-1 1층(양재동, 부광빌딩) 에이리셉션",34,400,,574,21,3,18,6,0,4,2110941,10830934.333333334,774.4899196886886,20,7,681735.8,531999.19
비지엠커피,37.4769616,126.9855202,서울 서초구 방배천로2길 51 1층,218,"7,000",4.8,1749,31,90,40,5,1,4,2120163,3529162.0,341.8209337842967,87,56,681735.8,531999.19
카페드리옹 서래본점,37.4988087,126.9973602,서울 서초구 서래로7길 18 1층 카페드리옹,506,"4,000",,4648,19,3,17,3,0,10,2120165,35367164.69565217,527.6135458401029,28,12,681735.8,531999.19
담장옆에국화꽃 파미에점,37.5032832,127.0042116,서울 서초구 사평대로 205 센트럴시티 파미에스테이션 2층,"1,651","3,000",4.5,6537,20,0,23,7,1,0,2120167,50628679.46875,181.6187688643676,37,24,681735.8,531999.19
바타드브레드,37.4863238,126.9968221,서울 서초구 방배로20길 33,177,"3,000",4.69,2787,21,12,23,3,1,2,2110922,21617602.33333333,325.5089094803812,34,14,681735.8,531999.19
페이브베이커리 방배본점,37.4893191,126.9936485,서울 서초구 서초대로25길 32,"1,619","9,000",4.44,545,28,2,29,4,1,0,2120164,29038882.303370785,189.5313829442541,43,20,681735.8,531999.19
이하나커피 교대점,37.4914663,127.0147116,서울 서초구 서초중앙로 110 롯데캐슬메디치 1층,254,"1,000",,4077,26,2,29,2,1,2,2120173,19655228.49222798,223.73615303028188,57,31,681735.8,531999.19
37.5 서래마을점,37.4988768,126.9974924,서울 서초구 서래로7길 16 민트빌딩 2층,"1,178","5,000",,4648,19,3,17,3,0,10,2120165,35367164.69565217,523.2258366361774,28,12,681735.8,531999.19
사푼사푼 강남역점,37.494441,127.0288884,서울 서초구 강남대로 355 삼성화재서초사옥,676,"1,000",4.36,2849,39,1,25,6,1,6,2120189,44883635.7075,315.64108223236474,61,32,681735.8,531999.19
룰커피,37.4823985,127.0111316,서울 서초구 반포대로7길 16 청목빌딩 1층,323,"4,000",4.76,21654,25,0,12,4,0,4,2120171,29243434.5,532.5911051372373,22,12,681735.8,531999.19
카페 앙떼띠 팝업스토어,37.4990807,126.9989978,서울 서초구 사평대로26길 24 1층 카페 앙떼띠 팝업스토어,437,"5,000",4.51,6024,21,3,17,5,0,4,2120165,35367164.69565217,552.9527459895467,29,13,681735.8,531999.19
밀갸또,37.4931316,127.0181451,서울 서초구 서초대로58길 37,361,"8,000",4.47,3830,30,2,26,5,1,2,2120173,19655228.49222798,360.02497399909504,38,15,681735.8,531999.19
르뺑아쎄르,37.496677,126.9980988,서울 서초구 서래로 17,626,"3,000",4.54,1462,17,3,18,2,0,2,2120165,35367164.69565217,773.3844145062718,30,13,681735.8,531999.19
모짜르트502,37.4785361,127.0107423,서울 서초구 남부순환로 2406 (예술의전당 내),"1,775","3,000",4.31,426,17,0,5,3,0,2,2110926,6134934.583333333,865.8359797400527,11,7,681735.8,531999.19
카페 보아즈,37.4742049,127.0357921,서울 서초구 양재천로 53,"1,134","6,000",4.32,3719,16,2,12,5,0,2,2110938,14467208.576923076,519.6290986763611,12,5,681735.8,531999.19
아르고보니,37.5141406,127.0180127,서울 서초구 나루터로12길 27 1층,73,500,,7656,19,8,12,4,2,0,2120174,,306.32181818740685,35,21,681735.8,531999.19
젤라띠젤라띠,37.5032191,127.004523,서울 서초구 신반포로 176 센트럴시티 파미에 스테이션 1층,266,"1,000",4.48,6537,20,7,25,7,1,0,2120167,50628679.46875,180.73831513231823,39,25,681735.8,531999.19
오병호 베이커리 카페,37.486356,127.0152153,서울 서초구 서초중앙로 51 서초신성미소시티,769,600,4.32,1889,30,0,14,4,1,2,2120172,15487229.586206896,172.28477365473483,30,11,681735.8,531999.19
카몽,37.4911748,127.0089285,서울 서초구 서초대로42길 17 1층,"1,010","6,000",4.6,2610,21,26,19,3,1,2,2120169,24532006.47311828,120.05402831133532,43,22,681735.8,531999.19
카페로비,37.4885356,127.0127816,서울 서초구 반포대로20길 53 1층,222,"7,000",4.33,1889,25,26,25,4,1,2,2120172,15487229.586206896,493.7735167358175,57,25,681735.8,531999.19
딥다이브,37.4824731,126.9849175,서울 서초구 방배천로18길 36-5 1층,191,"3,000",4.35,939,19,159,42,7,1,4,2110905,50000000.0,494.33046548942735,94,62,681735.8,531999.19
김영모과자점 서초본점,37.4890151,127.0277225,서울 서초구 효령로 403 서초그랑몰 102호,128,400,,13257,31,0,10,8,0,2,2120192,30913304.470238097,815.2143265139058,29,14,681735.8,531999.19
언니가 숨겨놓은 과자상자,37.4804559,126.984646,서울 서초구 방배천로8길 36 1층,557,"7,000",4.63,1548,27,199,44,4,0,4,2110905,50000000.0,508.7613071710976,115,83,681735.8,531999.19
올웨이즈온,37.4790147,126.9838624,서울 서초구 방배천로2안길 45 1층,499,"1,000",4.64,503,30,164,57,6,1,2,2120163,3529162.0,336.5297673062611,138,94,681735.8,531999.19
아펜즈커피 서초교대점,37.492466,127.0136978,"서울 서초구 서초중앙로 119 1, 2층 아펜즈 커피",307,"1,000",4.53,5993,23,3,31,3,1,2,2120173,19655228.49222798,110.78069233608493,58,33,681735.8,531999.19
앙띠크,37.4922043,127.014823,서울 서초구 서초중앙로20길 14 1층 앙띠크,369,"3,000",4.43,6085,27,2,29,2,1,2,2120173,19655228.49222798,149.73507804126533,56,32,681735.8,531999.19
플레인,37.4891466,127.0082897,서울 서초구 반포대로23길 6 효진빌딩 1층,864,"1,000",4.43,10157,22,26,13,3,1,4,2120169,24532006.47311828,307.5936239251891,32,17,681735.8,531999.19
베키아에누보 강남점,37.5049856,127.0031828,서울 서초구 신반포로 176 신세계백화점 강남점 1M 메짜닌층,555,"1,000",4.39,6537,19,0,24,7,1,0,2120167,50628679.46875,156.49227546035337,39,26,681735.8,531999.19
리요리요커피,37.4828082,126.9836324,서울 서초구 방배천로18길 11 아르떼상가 B동 104호 리요리요커피,163,"3,000",4.94,3506,25,159,50,8,1,4,2110904,28825781.25,410.6130856506078,118,83,681735.8,531999.19
베이크샵 피봇,37.4863595,126.9939048,서울 서초구 방배로23길 5 1층,147,"7,000",4.49,2787,29,7,28,5,1,2,2110916,8652005.166666666,144.14566287973685,42,17,681735.8,531999.19
김영모과자점 서초동성당점,37.4938045,127.0213064,서울 서초구 서초대로64길 41-4,"1,595","5,000",4.44,4517,31,1,15,6,0,4,2110930,4354048.666666667,639.0152123343756,20,7,681735.8,531999.19
이흥용과자점 신세계백화점 강남점,37.5052244,127.0039184,서울 서초구 신반포로 176 신세계백화점 B1층,770,"2,000",4.44,6537,21,0,24,8,1,0,2120167,50628679.46875,101.44964829346534,39,26,681735.8,531999.19
파스쿠찌 에스프레소 바 양재,37.4846361,127.0372867,서울 서초구 남부순환로 2620 (양재동) 1층,"1,083","1,000",4.55,5120,25,1,8,9,1,6,2130301,,240.55527920606465,17,14,681735.8,531999.19
생각이나서,37.478519,126.9838485,서울 서초구 방배천로2안길 33 1층,224,"1,000",4.29,503,29,145,58,6,1,2,2120163,3529162.0,292.17005782931705,139,96,681735.8,531999.19
고스트요거트 교대본점,37.4925136,127.0163068,서울 서초구 서초중앙로20길 37 1층 고스트요거트,"1,432","3,000",4.88,5879,31,2,28,3,1,2,2120173,19655228.49222798,220.55129235350995,51,27,681735.8,531999.19
아티장베이커스 서래점,37.4982471,126.998173,서울 서초구 서래로 35,525,"3,000",,5574,17,3,17,3,0,4,2120165,35367164.69565217,607.9010033403821,29,13,681735.8,531999.19
오리에,37.489023,126.9943839,서울 서초구 서초대로27길 21 1층,199,"12,000",4.57,545,23,2,26,4,1,0,2120164,29038882.303370785,174.1032531616385,39,18,681735.8,531999.19
미쁘다제빵소,37.4779981,127.0004818,서울 서초구 방배로4길 6 1층 미쁘다,251,200,4.46,1989,24,0,4,3,1,2,2110923,,458.4012200083757,3,1,681735.8,531999.19
미니말레 커피뢰스터 양재본점,37.4688808,127.0412279,서울 서초구 강남대로10길 32,864,"2,000",4.61,741,14,6,11,7,1,6,2120182,25808544.67924528,278.45734042284164,13,7,681735.8,531999.19
호라이즌 신세계백화점강남점,37.5049164,127.0032163,서울 서초구 신반포로 176 신세계백화점 강남점 3층,90,"2,000",4.57,6537,18,0,24,7,1,0,2120167,50628679.46875,152.7731592695698,39,26,681735.8,531999.19
파리크라상 교대역점,37.4953402,127.0167151,서울 서초구 서초중앙로24길 27 G-five 플라자 1층,"2,817",600,4.38,3830,28,2,27,4,1,0,2120173,19655228.49222798,316.0272326954889,38,16,681735.8,531999.19
fincafe,37.4955978,126.9982636,서울 서초구 서래로 8 1층 fin,261,"4,000",4.51,1462,15,3,18,3,0,2,2110924,25088650.166666668,893.3812553447715,31,14,681735.8,531999.19
크레미엘,37.4757529,127.0391241,"서울 서초구 양재천로21길 3 1층(양재동, 디와이빌딩)",326,"13,000",,1136,19,2,20,5,0,0,2120181,12088743.94117647,640.1594023282737,21,8,681735.8,531999.19
오뗄두스,37.4995471,126.998969,서울 서초구 서래로10길 9 서래빌딩,348,"8,000",4.47,6024,21,3,18,6,0,8,2120165,35367164.69565217,507.0360003691638,29,12,681735.8,531999.19
르떵하피네,37.4828947,127.0079828,서울 서초구 반포대로9길 70 1F,181,"2,000",,3517,26,0,12,3,0,6,2110926,6134934.583333333,761.4300151709069,18,9,681735.8,531999.19
올라하이,37.4794135,126.9836765,서울 서초구 방배천로6길 19 1층,103,"1,000",,926,26,185,56,7,1,2,2120163,3529162.0,365.6328355555472,134,94,681735.8,531999.19
꿈꾸는다락방,37.4777341,126.9852965,서울 서초구 청두곶길 14 두원아파트,97,900,4.32,782,31,101,44,6,1,4,2120163,3529162.0,345.67598513376555,109,76,681735.8,531999.19
커피리브레 신세계백화점 강남점,37.5042704,127.0038875,서울 서초구 신반포로 176 파미에스트리트 지하 1층,"1,262","1,000",4.38,6537,20,0,24,7,1,0,2120167,50628679.46875,110.76590649269475,38,25,681735.8,531999.19
모먼트 모던 이터리,37.489762,126.9939437,서울 서초구 서초대로27길 39 1층 102호,137,"5,000",,545,28,2,28,4,1,0,2110919,,241.4118791960045,43,21,681735.8,531999.19
레프레미스,37.4843971,127.0206493,서울 서초구 남부순환로337길 36 1층,401,"6,000",4.5,3409,21,0,6,3,1,2,2120175,17033856.711340208,399.46914239134,8,3,681735.8,531999.19
엔트런스,37.4924472,127.0190354,서울 서초구 사임당로19길 72-3,179,"4,000",4.69,3692,29,2,23,5,1,2,2110930,4354048.666666667,450.2417256047506,32,11,681735.8,531999.19
미니말레 커피뢰스터 교대점,37.495301,127.0141016,서울 서초구 서초대로51길 15 1층 미니말레 커피뢰스터,384,700,,4187,21,2,25,3,1,0,2120173,19655228.49222798,209.7225791959068,45,26,681735.8,531999.19
토비커피,37.4849676,126.9841785,서울 서초구 방배천로24길 11 1층,478,"1,000",4.63,1523,28,115,47,9,1,6,2110904,28825781.25,240.97686120947017,102,64,681735.8,531999.19
아워헤르츠,37.4931482,127.0178916,서울 서초구 서초대로58길 36 위드타운 1층,121,"1,000",4.59,3692,30,2,26,4,1,2,2120173,19655228.49222798,337.5842099191888,41,18,681735.8,531999.19
로우슬로우,37.4782885,126.9838015,서울 서초구 방배천로2안길 27 2층,233,"6,000",4.49,503,29,140,59,6,1,2,2120160,19067511.342592597,270.4010478184673,142,98,681735.8,531999.19
카페온화 서초점,37.4895173,127.0084077,서울 서초구 반포대로 105,433,"3,000",4.36,10157,21,26,14,3,1,4,2120169,24532006.47311828,268.12920298990605,35,19,681735.8,531999.19
로우어가든,37.5056102,127.0231084,서울 서초구 사평대로57길 28 1층,153,"5,000",4.48,553,28,3,31,6,1,2,2120187,28000951.298245613,205.68024037820533,77,50,681735.8,531999.19
파리크라상 반포서래점,37.4979162,126.9981269,서울 서초구 서래로5길 2 (반포동) 파리크라상 반포서래점,"2,210","1,000",4.41,5574,19,3,17,3,0,4,2120165,35367164.69565217,641.5518007276867,29,13,681735.8,531999.19
김씨부인  한식디저트 카페,37.4990989,126.998772,서울 서초구 사평대로26길 26-6 2층,86,"7,000",3.91,6024,21,3,17,5,0,4,2120165,35367164.69565217,541.6715034879043,29,13,681735.8,531999.19
카페모호,37.4743129,127.0361179,서울 서초구 양재천로7길 1,199,"5,000",4.55,3719,16,2,13,4,0,2,2110938,14467208.576923076,518.4766491020612,13,5,681735.8,531999.19
더카카오,37.4689867,127.041378,서울 서초구 강남대로10길 36 1층,182,200,,741,14,6,11,7,1,6,2120182,25808544.67924528,285.35353110975814,13,7,681735.8,531999.19
비엔,37.5059437,127.0226975,서울 서초구 사평대로57길 39-1 1층,122,"1,000",4.63,1475,25,3,25,6,1,2,2120177,20463120.8,256.5548536639393,55,35,681735.8,531999.19
오오사,37.4962722,126.9845941,서울 서초구 동광로3길 122 107호,65,"1,000",4.79,4088,23,106,5,6,0,4,2120162,72905670.56603773,615.5498023787798,13,4,681735.8,531999.19
파브리끄 양재점,37.4858039,127.03085,서울 서초구 서운로6길 25 1층,223,"2,000",4.46,2415,25,0,13,5,1,6,2120179,20831863.30656934,381.1080980433424,24,15,681735.8,531999.19
아티제 강남점,37.5028092,127.0236709,서울 서초구 서초대로77길 62 강남역 IPARK,830,700,4.41,1371,38,1,53,7,1,4,2120187,28000951.298245613,233.6206472157301,119,83,681735.8,531999.19
카페 사이로,37.4956186,126.9891261,서울 서초구 방배로42길 3 하모니빌딩 1층,214,"1,000",4.45,2022,31,56,9,5,0,2,2110912,51520578.277777776,658.1738443181554,22,9,681735.8,531999.19
모녀당,37.4818358,126.9841947,서울 서초구 방배천로2안길 110 1층,271,"2,000",4.53,907,21,190,48,8,0,2,2110905,50000000.0,529.3581457296533,115,78,681735.8,531999.19
온고지신 센트럴시티점,37.5049856,127.0031828,서울 서초구 신반포로 176 1M층 M4호,82,300,,6537,19,0,24,7,1,0,2120167,50628679.46875,156.49227546035337,39,26,681735.8,531999.19
스타벅스 센트럴시티점,37.504707,127.004459,서울 서초구 신반포로 176,"8,456",400,4.43,6537,21,12,25,8,1,0,2120167,50628679.46875,44.203808682150246,40,27,681735.8,531999.19
먼셀커피 서래마을점,37.4978874,126.9992016,서울 서초구 서래로6길 15,169,"1,000",4.37,6024,19,3,18,3,0,4,2120165,35367164.69565217,679.2158514632127,30,13,681735.8,531999.19
커피앳웍스 양재역점,37.4849676,127.0332038,"서울 서초구 강남대로 241 세원빌딩 내 지상 1,2층","1,207","2,000",4.42,3981,28,1,14,9,1,8,2120179,20831863.30656934,155.5125419803914,26,17,681735.8,531999.19
액트커피,37.4798278,126.9833665,서울 서초구 방배천로4안길 40 1층,140,"2,000",4.51,926,23,200,58,7,1,2,2120163,3529162.0,395.5817755334587,136,94,681735.8,531999.19
김영모과자점 신반포점,37.5030791,126.9954673,서울 서초구 신반포로 100 래미안 퍼스티지 신반포역상가,"2,314","2,000",4.44,6688,14,1,4,8,1,16,2120165,35367164.69565217,55.00189041656629,6,5,681735.8,531999.19
UCL,37.4974391,127.024544,서울 서초구 서초대로 397 1층 104호,408,"3,000",4.58,7906,47,0,39,4,1,6,2120189,44883635.7075,299.8023590588126,98,65,681735.8,531999.19
앨리스프로젝트,37.4770034,127.0403695,서울 서초구 양재천로 107-4 1층 앨리스프로젝트,100,"4,000",,3851,25,1,18,5,0,0,2120181,12088743.94117647,795.0237003620015,20,6,681735.8,531999.19
그릿 918 베이커리 카페,37.4941317,127.013254,서울 서초구 법원로2길 24,"1,075","2,000",4.25,6085,21,2,25,3,1,2,2120173,19655228.49222798,107.98877366230212,51,31,681735.8,531999.19
테라로사 예술의전당점,37.4793227,127.0137829,서울 서초구 남부순환로 2406 예술의전당,"3,814","2,000",4.4,426,16,0,5,2,0,2,2120171,29243434.5,667.403076994411,12,8,681735.8,531999.19
카페림이티드,37.4801046,126.9839418,서울 서초구 방배천로2안길 69 1층 101호 카페림이티드,199,800,4.79,926,26,199,51,5,1,2,2120163,3529162.0,444.57597329989113,127,88,681735.8,531999.19
비비스,37.4817016,126.9950064,서울 서초구 효령로27길 19 1층,199,"1,000",,736,33,12,9,3,1,2,2110918,21885517.83333333,230.54892680635336,13,3,681735.8,531999.19
JW 메리어트 호텔 서울 더 라운지,37.5040137,127.0047012,서울 서초구 신반포로 176 JW 메리어트 호텔 서울 8층,159,"1,000",4.59,6537,21,27,26,8,1,0,2120167,50628679.46875,91.0774716750161,40,26,681735.8,531999.19
아쿠아가든카페 NH양재점,37.4708508,127.0434663,서울 서초구 동산로6길 3 2층,248,"3,000",4.49,1881,19,8,13,6,1,6,2120182,25808544.67924528,454.7586053902419,15,7,681735.8,531999.19
투썸플레이스 강남KI타워점,37.5018588,127.0247203,서울 서초구 강남대로69길 8 KI타워 2층,"2,214",500,4.51,1504,40,2,65,8,1,4,2120187,28000951.298245613,306.0560859193789,144,97,681735.8,531999.19
리플렉트커피 로스터스 양재점,37.4872234,127.0284407,서울 서초구 효령로72길 57 E동 101호,238,"1,000",4.92,13257,27,0,12,6,0,0,2110935,15822209.333333334,644.4744433207054,24,13,681735.8,531999.19
흐르르(Hrr),37.5205274,127.0137656,서울 서초구 잠원로 201-12,62,"6,000",,2890,7,0,1,3,0,4,2110949,9728393.25,728.6346212734923,3,1,681735.8,531999.19
티안,37.488226,127.0204124,서울 서초구 서리풀길 21 1층,101,"2,000",4.69,3479,24,0,8,5,0,2,2110929,6828751.266666667,516.24030266298,12,2,681735.8,531999.19
티 플랜트,37.4970122,126.999592,서울 서초구 동광로39길 46,166,"2,000",4.63,5574,20,3,18,3,0,2,2110924,25088650.166666668,782.0058313946079,30,13,681735.8,531999.19
오페라빈 에스프레소바 서초점,37.4901208,127.0094748,서울 서초구 반포대로26길 1 1층,124,400,,2610,23,26,20,3,1,2,2120169,24532006.47311828,240.620297217649,45,24,681735.8,531999.19
디끌레,37.5099461,127.0187519,서울 서초구 신반포로42길 11 1층 101호,70,"1,000",,2289,11,0,10,3,1,0,2120176,5561380.666666667,267.2838794653572,29,19,681735.8,531999.19
템포커피 방배점,37.488164,126.994429,서울 서초구 서초대로 111 1층 템포커피,67,500,,545,25,2,26,5,1,0,2120164,29038882.303370785,101.08342949219644,41,19,681735.8,531999.19
아티제 서초역점,37.4901366,127.0073697,서울 서초구 반포대로27길 16,"2,482",700,4.31,10157,16,26,13,3,1,2,2120169,24532006.47311828,201.61557427492235,28,14,681735.8,531999.19
매더커피갤러리,37.4845246,127.0094618,서울 서초구 효령로47길 15 1층 매더커피갤러리,292,"1,000",4.65,3227,26,17,13,4,0,6,2120171,29243434.5,596.0535551581237,25,11,681735.8,531999.19
타짜도르 강남점,37.5024296,127.0237899,서울 서초구 서초대로77길 61 S&G타워 1층,493,"3,000",4.48,1504,37,1,55,8,1,4,2120187,28000951.298245613,265.87479611618784,130,91,681735.8,531999.19
메종드꼼빠뇽,37.4938574,127.0073811,서울 서초구 서초대로41길 19 1층,"1,094","2,000",4.28,2673,15,1,7,4,1,0,2120169,24532006.47311828,223.05528043525425,19,13,681735.8,531999.19
아가젤라또 서초교대점,37.4915508,127.0142936,서울 서초구 서초중앙로 110 1층 103호,26,600,,4077,27,3,31,2,1,2,2120173,19655228.49222798,208.144722135433,59,31,681735.8,531999.19
르팡,37.496707,126.9883515,서울 서초구 방배로 268 신삼호종합상가 1층,"1,204","2,000",4.51,2022,27,50,7,7,0,2,2120162,72905670.56603773,525.587771662749,16,6,681735.8,531999.19
도너츠윤 방배점,37.4874195,126.9841416,서울 서초구 동광로12가길 12 도너츠윤 방배점,317,"5,000",,1168,27,57,41,10,1,6,2110907,4986874.666666667,229.36951481243915,90,58,681735.8,531999.19
카페 페라 클래식,37.4778025,126.9823542,서울 서초구 방배천로 11 SK리더스뷰,"1,554","1,000",,575,27,131,63,6,1,2,2120160,19067511.342592597,153.3241148736845,153,104,681735.8,531999.19
카페 릴리블랑,37.4776468,127.0381714,서울 서초구 양재천로19길 52 우리빌딩 1층,183,"1,000",4.38,1136,17,1,14,5,0,0,2120181,12088743.94117647,787.4144966783473,19,6,681735.8,531999.19
플리퍼스 센트럴시티점,37.5044579,127.0040519,서울 서초구 신반포로 176 신세계 센트럴시티 1층 115호,983,"1,000",4.43,6537,20,0,25,8,1,0,2120167,50628679.46875,87.81601478533898,40,27,681735.8,531999.19
브레댄코 내방본점,37.488467,126.993415,서울 서초구 방배로 166 한승빌딩1층,"1,650",800,4.39,1394,27,2,27,5,1,0,2120164,29038882.303370785,94.79977535359178,43,19,681735.8,531999.19
방배목장,37.4954171,126.9893841,서울 서초구 방배로42길 11,76,"1,000",4.57,2022,31,56,9,4,0,2,2110912,51520578.277777776,685.5990489043369,22,9,681735.8,531999.19
카페 더 나인&로플로플3호점,37.4983969,127.0264514,서울 서초구 서초대로77길 5 1~2층,466,"1,000",4.4,613,45,0,50,4,1,4,2120189,44883635.7075,188.10504854586884,129,85,681735.8,531999.19
몬틸나잇,37.4915134,127.0155596,서울 서초구 서초중앙로18길 23 효암빌딩 1층 몬틸나잇카페,271,"7,000",4.59,2108,30,2,29,2,1,2,2120173,19655228.49222798,248.4973505410968,53,27,681735.8,531999.19
카페카페,37.4918418,126.9900191,서울 서초구 방배로33길 15 1층,182,200,4.41,597,23,32,22,5,0,0,2110912,51520578.277777776,561.7939729113123,38,20,681735.8,531999.19
더블딥커피,37.4814564,126.995374,서울 서초구 방배로11길 21 상가 2호,78,"1,000",4.71,736,34,11,9,3,1,2,2110920,,196.0959948803628,14,3,681735.8,531999.19
비지트,37.4883528,126.9914028,서울 서초구 동광로18길 82,145,"3,000",4.77,1398,32,2,27,6,1,2,2110914,,203.32464531281445,43,17,681735.8,531999.19
뚜레쥬르 강남점,37.4980245,127.0266553,서울 서초구 서초대로77길 3 아라타워 1층,"2,376",300,4.38,613,44,0,46,4,1,6,2120189,44883635.7075,146.59246866774424,119,79,681735.8,531999.19
JW 메리어트 호텔 서울 카페 원,37.5039507,127.0047185,서울 서초구 신반포로 176 JW 메리어트 호텔 서울 1층,224,600,4.74,6537,21,28,26,8,1,0,2120167,50628679.46875,97.58058342977972,40,26,681735.8,531999.19
줄리에뜨,37.494027,127.0010633,서울 서초구 동광로 178,120,"2,000",4.63,1462,11,2,7,2,0,2,2110924,25088650.166666668,649.4007352013265,14,5,681735.8,531999.19
디바야누스,37.4937361,127.0161891,서울 서초구 서초대로54길 9-8 길찾기,62,"3,000",4.59,4654,27,2,28,3,1,2,2120173,19655228.49222798,189.46907946684544,49,26,681735.8,531999.19
가배도 강남점,37.4987294,127.0268807,서울 서초구 강남대로 405 1층,360,"2,000",4.48,2085,46,1,60,4,1,4,2120189,44883635.7075,195.9029707595202,141,93,681735.8,531999.19
홍종흔베이커리 서초점,37.4837847,127.0089589,서울 서초구 효령로 229 1층,809,600,4.24,2670,26,6,13,3,0,6,2110926,6134934.583333333,652.4076034170564,24,10,681735.8,531999.19
마초셰프,37.4883428,126.9942738,서울 서초구 서초대로25길 8 세림빌딩,124,"1,000",4.29,545,25,2,26,5,1,0,2120164,29038882.303370785,104.88738019145724,41,19,681735.8,531999.19
스타벅스 양재역점,37.4822592,127.0368856,서울 서초구 강남대로 202,"3,925",500,4.42,2776,27,1,5,7,1,4,2110939,15315781.9122807,289.2067528725139,19,13,681735.8,531999.19
설빙 교대역,37.4931706,127.015947,서울 서초구 서초대로54길 24,579,200,4.25,5879,33,2,28,3,1,2,2120173,19655228.49222798,166.94271573826447,51,27,681735.8,531999.19
폴바셋 강남삼성타운점,37.4958967,127.0274093,서울 서초구 서초대로78길 22 홍우제2빌딩 1층,"3,871","1,000",4.59,9575,38,0,34,5,1,6,2120189,44883635.7075,149.27108277269429,88,54,681735.8,531999.19
레어마카롱 교대점,37.4891374,127.0116042,서울 서초구 반포대로24길 47 1층,"1,150","3,000",4.8,1889,25,26,26,3,1,4,2110928,665508.0,447.2014995359776,57,26,681735.8,531999.19
웨인스베이글스 강남역점,37.4920048,127.0286718,서울 서초구 효령로77길 34 1층 115호,301,"2,000",,7558,30,0,11,4,0,6,2120192,30913304.470238097,578.6537643362212,44,24,681735.8,531999.19
눈내리는숲설래임 방배점,37.4825619,126.984552,서울 서초구 방배천로18길 32 104호,45,300,,3506,19,159,43,8,1,2,2110905,50000000.0,469.5861704145179,102,70,681735.8,531999.19
도마 베이커리 앤 테스트키친,37.4770813,127.0379332,서울 서초구 강남대로23길 12 1층~3층,341,"3,000",4.61,1136,18,1,14,4,0,0,2120181,12088743.94117647,786.0230579623711,19,7,681735.8,531999.19
스타벅스 강남교보타워R점,37.503789,127.024075,서울 서초구 강남대로 465,"3,462",400,4.48,1371,38,1,51,6,1,0,2120187,28000951.298245613,125.0675907829483,114,77,681735.8,531999.19
설빙 남부터미널점,37.4841945,127.0131366,서울 서초구 효령로 264 2층,417,100,4.04,3491,36,0,19,5,1,2,2120171,29243434.5,284.29128297216647,35,14,681735.8,531999.19
오브시에,37.4815882,126.9953652,서울 서초구 방배로11길 22,46,"1,000",4.75,736,34,11,9,3,1,2,2110920,,197.66773017394297,14,3,681735.8,531999.19
커피랑도서관 반포점,37.5034806,127.010134,서울 서초구 고무래로 12 서초빌딩 201호,66,400,4.66,3043,22,42,13,6,2,4,2120170,37592540.6,459.2281129982637,25,17,681735.8,531999.19
비스포킷 서초점,37.4870907,127.0228639,서울 서초구 효령로 355 KD CENTER 1층,99,300,4.77,4208,19,0,5,6,0,2,2110933,,632.6424302206779,9,3,681735.8,531999.19
카페고고스회관,37.4661015,127.0196911,서울 서초구 형촌10길 3,201,900,4.47,739,6,0,2,1,0,4,2110931,25792031.580645163,1709.4631365609928,2,1,681735.8,531999.19
콰이어커피,37.4869205,127.0089322,서울 서초구 반포대로19길 9-7,118,"1,000",4.91,2197,22,26,18,4,0,6,2110925,12522933.916666666,560.5646652021368,31,10,681735.8,531999.19
햇쌀마루,37.486027,127.0295592,서울 서초구 서운로 22 1층 햇쌀마루,"1,323","1,000",4.42,2215,21,0,11,7,1,2,2110935,15822209.333333334,493.9273136775452,21,12,681735.8,531999.19
히어커피,37.4681094,127.0413866,서울 서초구 강남대로10길 6 1층 101호,111,200,,973,15,4,9,7,1,4,2120182,25808544.67924528,337.3759894326951,11,6,681735.8,531999.19
코지리틀,37.4750799,127.0436025,서울 서초구 언남11길 20,225,"3,000",4.76,7464,16,4,17,5,0,6,2110941,10830934.333333334,724.8140079635092,17,6,681735.8,531999.19
아티제 잠원파스텔점,37.5104285,127.0101418,서울 서초구 신반포로33길 27 파스텔프라자,531,400,4.33,3041,17,0,3,5,2,2,2110927,3677229.6666666665,276.0394335678116,5,3,681735.8,531999.19
피노키오,37.4977952,126.9975294,서울 서초구 사평대로22길 42 103호,75,"1,000",,4044,18,3,17,3,0,4,2120165,35367164.69565217,640.7219191834034,29,13,681735.8,531999.19
리프레셔스,37.4793886,126.9856186,서울 서초구 청두곶6길 8 1층 리프레셔스,180,"5,000",4.64,537,31,158,38,5,1,4,2120163,3529162.0,470.6630159867371,97,68,681735.8,531999.19
더브레드블루 서초점,37.4867548,127.0163689,서울 서초구 서초중앙로8길 17,233,"2,000",4.36,3465,31,0,15,2,1,2,2120175,17033856.711340208,194.3289569080636,30,11,681735.8,531999.19
마가렛리버 양재,37.4742682,127.0434948,서울 서초구 언남11길 7-9 1층,9,~100,,10524,18,5,16,6,0,6,2110941,10830934.333333334,650.6895622819152,17,5,681735.8,531999.19
투썸플레이스 사당역로데오점,37.4771788,126.983176,서울 서초구 방배천로2길 5 1층 투썸플레이스,"1,172",200,4.29,519,28,101,58,6,1,2,2120160,19067511.342592597,150.05310103886015,145,100,681735.8,531999.19
오페라빈 로스터스 본점,37.4662317,127.0352934,서울 서초구 매헌로6길 55,187,900,4.33,9731,14,0,2,3,0,0,2110936,53637214.73333333,503.8509174897922,2,0,681735.8,531999.19
컨트리보이,37.4888368,126.9894581,서울 서초구 방배로27길 53 1층,93,"1,000",,1481,32,9,28,6,1,6,2110910,264315.3333333333,382.5760840990711,43,19,681735.8,531999.19
곤트란쉐리에 서래점,37.4973168,126.998197,서울 서초구 서래로 25,452,"3,000",4.43,5574,17,3,18,2,0,2,2120165,35367164.69565217,707.0906716937529,30,13,681735.8,531999.19
커피빈 논현역6번출구앞점,37.5120097,127.0205083,서울 서초구 강남대로 563 페이토플라자 1층,916,100,4.47,1205,14,7,14,3,2,0,2120185,21688854.0,129.56109063704392,34,22,681735.8,531999.19
세컨클락,37.4486719,127.0585452,서울 서초구 청룡마을길 41,492,"2,000",4.51,298,11,2,3,4,1,0,2110947,7235449.222222222,301.79660468611326,3,0,681735.8,531999.19
앨리스토리커피,37.470816,127.0399837,서울 서초구 강남대로16길 16 앨리스토리커피,367,800,4.39,1469,17,6,12,7,1,6,2120182,25808544.67924528,163.76561851419126,14,7,681735.8,531999.19
리플렉트커피 로스팅 랩,37.4866626,127.0309222,서울 서초구 남부순환로347길 53 104호,75,500,,2417,28,0,13,6,1,6,2110960,,430.5027770562622,25,15,681735.8,531999.19
좋은아침페스츄리 양재점,37.4796225,127.0397808,서울 서초구 바우뫼로37길 18 제이프러스빌딩,559,"1,000",4.43,1870,25,17,13,6,0,0,2110939,15315781.9122807,677.9382329714888,19,8,681735.8,531999.19
파리크라상 서초아크로비스타점,37.4992641,127.0129674,"서울 서초구 서초중앙로 188 (서초동, 아크로비스타) 아크로비스타 상가 1층 파리크라상 서초아크로비스타점","1,283",100,4.38,3384,22,3,5,1,0,6,2120170,37592540.6,585.5191516848058,9,6,681735.8,531999.19
박스프레소 양재점,37.4849579,127.0322892,서울 서초구 강남대로37길 24 1층 박스프레소 양재점,40,~100,,2415,27,1,13,7,1,8,2120179,20831863.30656934,225.4460945306114,24,16,681735.8,531999.19
스타벅스 강남GT타워점,37.498056,127.025833,서울 서초구 서초대로 411,"2,377",400,4.47,1243,47,0,45,5,1,6,2120189,44883635.7075,209.02188697900715,113,74,681735.8,531999.19
보나브뉴베이커리,37.4932563,126.989289,서울 서초구 동광로19길 16 1층,133,800,,641,26,46,12,4,0,2,2110912,51520578.277777776,729.352753867009,28,14,681735.8,531999.19
스타벅스 몬테소리점,37.4982695,127.026865,서울 서초구 강남대로 399,"4,142",600,4.49,2085,45,0,48,4,1,4,2120189,44883635.7075,153.5343155729299,124,83,681735.8,531999.19
더 엘씨,37.4919436,127.0114428,서울 서초구 서초대로48길 20 1층,196,400,,8610,26,11,29,4,2,2,2120169,24532006.47311828,284.4358116356918,53,27,681735.8,531999.19
카페 무세띠,37.4835898,126.9939834,서울 서초구 방배로15길 33 1층,166,"3,000",4.74,1942,39,12,13,3,2,4,2110918,21885517.83333333,399.3780879910039,17,5,681735.8,531999.19
블루엣,37.4880269,126.992211,서울 서초구 서초대로19길 10-19 창유빌 1층,9,~100,,1721,29,2,27,5,1,2,2120164,29038882.303370785,123.5479299095916,42,18,681735.8,531999.19
콘띠오,37.4727943,127.0417015,서울 서초구 언남길 35 1층 101호 카페 콘띠오  ConTio,281,"2,000",4.63,1136,17,7,18,5,1,6,2110941,10830934.333333334,422.8766240086897,18,6,681735.8,531999.19
새퍼커피,37.4848499,126.9854956,서울 서초구 서초대로4길 17 1층,171,"1,000",4.84,1272,29,99,34,7,1,6,2110904,28825781.25,347.0145005305317,71,41,681735.8,531999.19
던킨 강남대로점,37.5028788,127.0248748,"서울 서초구 강남대로 455 (서초동, 강남태영데시앙루브) 1층","2,660",100,4.43,1371,38,2,56,7,1,2,2120187,28000951.298245613,191.8633852012873,132,89,681735.8,531999.19
아트메이저,37.4877623,126.9947308,서울 서초구 서초대로 114 J.H 빌딩,337,"3,000",4.35,1487,25,2,27,4,1,2,2120164,29038882.303370785,108.63979856545402,42,19,681735.8,531999.19
어딕티브,37.5090938,127.0185756,서울 서초구 주흥15길 5 102호,79,"3,000",4.72,2775,10,1,9,3,1,2,2120176,5561380.666666667,334.8772227994221,27,17,681735.8,531999.19
투썸플레이스 강남역아라타워점,37.4979713,127.0264695,서울 서초구 서초대로77길 3 2층,"1,243",400,4.44,613,44,0,45,4,1,6,2120189,44883635.7075,156.0461603000125,116,77,681735.8,531999.19
엠디에프커피바,37.5043414,127.0010992,서울 서초구 반포대로 287 래미안퍼스티지 중심상가 123호,132,600,,23615,19,0,22,9,2,6,2130297,,343.0479966431737,34,21,681735.8,531999.19
백록담디저트작업실,37.4757746,127.0365088,서울 서초구 양재천로13길 24 1층,"6,251","1,000",4.31,1136,20,1,11,4,0,2,2110938,14467208.576923076,661.4154643978826,13,5,681735.8,531999.19
커피랑도서관 교대역점,37.4954621,127.0175045,서울 서초구 서초중앙로24길 35 4층,142,300,4.76,3004,27,2,22,4,1,0,2120173,19655228.49222798,378.27463822943565,31,12,681735.8,531999.19
서초커피109,37.4837927,126.9958727,서울 서초구 방배로 109 1층,119,300,4.85,1904,39,12,12,3,2,2,2110918,21885517.83333333,303.9378046485063,15,4,681735.8,531999.19
디저트잇수,37.4868229,126.9831489,서울 서초구 서초대로1길 6 1층 102호,77,100,,1653,27,87,46,8,1,6,2120156,13784533.947916666,119.7907363990565,102,67,681735.8,531999.19
아티제 삼성타운점,37.4962855,127.0270603,서울 서초구 서초대로74길 11 삼성전자빌딩,"1,017","1,000",4.5,12590,36,0,36,5,1,6,2120189,44883635.7075,124.962395824056,97,61,681735.8,531999.19
커피빈 강남에스점,37.500258,127.026118,서울 서초구 강남대로 423 한승빌딩,"1,567",400,4.51,809,40,1,71,7,2,4,2120189,44883635.7075,378.1027426870433,149,98,681735.8,531999.19
4560디자인하우스,37.4624161,127.0368908,서울 서초구 매헌로 16 하이브랜드 3층,872,"21,000",4.93,9731,10,0,2,1,0,0,2120180,17236990.8,856.5493766174832,2,0,681735.8,531999.19
델리에또,37.5044515,127.0047331,서울 서초구 신반포로 176 1층 118-1,913,100,4.37,6537,23,25,26,8,1,0,2120167,50628679.46875,43.95362214080545,41,27,681735.8,531999.19
델젤라떼리아,37.4905773,126.9932375,서울 서초구 방배로28길 19,136,"3,000",4.63,545,29,1,27,4,1,0,2110919,,329.9561594837327,43,21,681735.8,531999.19
라파티세리킴,37.4765296,127.0012676,서울 서초구 방배로 16 주심빌딩 1층,815,"2,000",4.41,2720,16,0,2,2,0,2,2110923,,633.5617911336127,2,1,681735.8,531999.19
카페오뉴,37.5084958,127.0186375,서울 서초구 주흥13길 15 1층 카페오뉴,178,700,4.58,2775,9,2,10,3,1,2,2120176,5561380.666666667,378.712840635541,26,17,681735.8,531999.19
카페드프랑,37.5047938,127.0226989,서울 서초구 사평대로55길 18 1층,251,"1,000",4.63,1475,31,3,33,6,1,0,2120177,20463120.8,209.4109000167216,85,57,681735.8,531999.19
유캔두잇 서초교대점,37.4918136,127.0169722,서울 서초구 사임당로17길 68,43,~100,,804,30,2,27,3,1,2,2120173,19655228.49222798,311.15597008215354,49,24,681735.8,531999.19
양재동커피집,37.4771292,127.0394342,서울 서초구 양재천로 103-18 102호,162,400,4.54,1136,19,1,18,4,0,0,2120181,12088743.94117647,795.2271336087291,21,7,681735.8,531999.19
라이프브레드,37.4886041,126.9983088,서울 서초구 서초대로34길 19 1층,77,"1,000",,2122,15,0,19,2,1,2,2110922,21617602.33333333,437.11451493460936,29,11,681735.8,531999.19
크러스트 베이커리,37.4965638,127.0139297,서울 서초구 서초대로51길 30 1층 크러스트,119,400,,3881,19,2,14,3,1,0,2120173,19655228.49222798,350.38206325981935,27,13,681735.8,531999.19
행복빵집,37.495093,126.989247,서울 서초구 방배로 248 서래빌딩 1층,942,"1,000",4.36,766,31,56,9,4,0,2,2110912,51520578.277777776,717.4774715664637,23,9,681735.8,531999.19
미스터고트,37.4464182,127.0584205,서울 서초구 청룡마을길 13,125,600,4.31,298,6,2,3,4,1,0,2110947,7235449.222222222,258.81907182356144,5,2,681735.8,531999.19
빌리엔젤 교대점,37.4920054,127.0132618,서울 서초구 반포대로28길 94,816,300,4.36,5993,29,3,28,4,2,2,2120173,19655228.49222798,172.56435454361457,57,33,681735.8,531999.19
스타벅스 서울고속터미널점,37.504406,127.005648,서울 서초구 신반포로 194,"5,315",300,4.45,6537,19,41,26,8,1,0,2120167,50628679.46875,76.71732544821656,40,26,681735.8,531999.19
스타벅스 강남에비뉴점,37.5025923,127.0240628,서울 서초구 서초대로77길 62,"3,129",400,4.5,1371,37,1,56,7,1,4,2120187,28000951.298245613,239.7449990599144,129,90,681735.8,531999.19
투썸플레이스 내방역점,37.4878347,126.9930336,서울 서초구 서초대로 99,"1,317",100,4.37,2787,28,2,27,5,1,0,2120164,29038882.303370785,48.68009395707978,43,19,681735.8,531999.19
JW 메리어트 호텔 서울 파티세리,37.5039056,127.0047245,서울 서초구 신반포로 176 JW 메리어트 호텔 서울 2층,509,600,4.51,6537,22,29,26,8,1,0,2120167,50628679.46875,102.39523076641322,40,26,681735.8,531999.19
투썸플레이스 교보타워사거리점,37.503874,127.023538,서울 서초구 사평대로 368 1층 투썸플레이스 교보타워사거리점,761,200,4.49,1504,35,2,48,6,1,0,2120187,28000951.298245613,156.54544223433666,109,72,681735.8,531999.19
솔라스,37.4826138,126.9842041,서울 서초구 방배천로18길 26,"1,023","1,000",4.37,3506,23,159,45,8,1,2,2110905,50000000.0,450.391569878516,109,75,681735.8,531999.19
폴바셋 방배역점,37.4833146,126.9961825,서울 서초구 방배로 103 디엠타워,"2,932",300,4.63,1904,35,12,11,2,1,2,2110918,21885517.83333333,244.2486132536685,15,5,681735.8,531999.19
브리오슈도레 강남교보타워점,37.5038061,127.0241492,서울 서초구 강남대로 465 교보타워,572,500,4.32,1371,38,1,51,6,1,0,2120187,28000951.298245613,119.20079881530845,114,77,681735.8,531999.19
디저트39 강남역점,37.4955248,127.0273002,서울 서초구 서초대로74길 23 서초타운트라팰리스 108호,311,"1,000",4.5,25143,41,0,30,5,1,8,2120189,44883635.7075,191.61971221108897,80,49,681735.8,531999.19
파리크라상 서초래미안점,37.4923858,127.0268575,서울 서초구 사임당로 157 릿타워 1층 파리크라상,"1,427",400,4.37,8079,30,0,12,5,0,4,2120192,30913304.470238097,540.8143835199396,44,25,681735.8,531999.19
스타벅스 강남삼성타운점,37.4955665,127.0277817,서울 서초구 서초대로78길 24,"3,623",800,4.49,9575,41,1,32,6,1,6,2120189,44883635.7075,179.30976063410384,85,51,681735.8,531999.19
스타벅스 남부터미널점,37.4848068,127.0168331,서울 서초구 서초중앙로 26,"3,246",200,4.4,3061,37,0,12,4,1,2,2120175,17033856.711340208,61.28290001127689,25,10,681735.8,531999.19
배스킨라빈스 강남신논현점,37.5018479,127.0247827,서울 서초구 강남대로69길 8 케이아이타워 1층 배스킨라빈스 강남신논현점,"1,979",300,4.49,1504,40,2,65,8,1,4,2110954,128207013.75,306.7743989560902,144,97,681735.8,531999.19
오들오들,37.4708647,127.0454844,서울 서초구 강남대로8길 106 1층 ohdlohdl,15,200,,1132,17,6,12,3,0,6,2110942,9027415.529411765,630.4327121666,15,7,681735.8,531999.19
르뱅룰즈 신세계백화점 강남점,37.5049856,127.0031828,서울 서초구 신반포로 176 신세계백화점 지하 1층,217,"1,000",4.52,6537,19,0,24,7,1,0,2120167,50628679.46875,156.49227546035337,39,26,681735.8,531999.19
파리바게뜨 카페신사점,37.5155184,127.0193675,서울 서초구 강남대로 603,"2,736",100,4.37,3232,13,8,21,6,1,0,2120178,18636748.65,112.0700728458854,52,30,681735.8,531999.19
루스티크,37.4869481,127.0082667,서울 서초구 반포대로21길 39 산해빌딩,474,"1,000",4.41,3227,20,26,16,4,0,6,2110925,12522933.916666666,551.1576108049749,23,6,681735.8,531999.19
투썸플레이스 양재매헌역점,37.4709511,127.039244,서울 서초구 강남대로16길 3 1층,"1,534",300,4.39,973,17,6,12,7,1,6,2110940,9503001.666666666,126.2473774807715,15,7,681735.8,531999.19
폴바셋 파미에스테이션점,37.5029219,127.0035903,서울 서초구 사평대로 205 센트럴시티 파미에스테이션 FP102호,"5,199",500,4.46,6537,20,0,23,7,1,2,2120167,50628679.46875,241.48781636371663,37,24,681735.8,531999.19
설빙 양재역점,37.4859366,127.030376,서울 서초구 서운로6길 17,681,100,4.4,2415,24,0,12,5,1,2,2110935,15822209.333333334,424.9152147015523,24,15,681735.8,531999.19
카페더메뉴얼,37.5167386,127.0184001,"서울 서초구 강남대로101길 17 B1층, 1층",132,500,4.76,1445,16,8,25,6,1,2,2120178,18636748.65,157.71458071019083,58,32,681735.8,531999.19
카페드리옹 서래마을입구점,37.4991824,126.9982809,서울 서초구 서래로 47 1층 카페드리옹 서래마을입구점,301,500,4.73,5574,21,3,18,4,0,10,2120165,35367164.69565217,514.4881219997457,29,12,681735.8,531999.19
먼셀커피 신반포점,37.5067279,127.0060307,"서울 서초구 신반포로 195 5동 1층 9,10,11,12,13호",278,300,4.37,4501,20,25,25,7,1,2,2130298,17937240.888888888,233.85026657133756,41,27,681735.8,531999.19
꿈꾸는크루아상,37.4880989,126.9829669,서울 서초구 서초대로1길 19-6,766,"1,000",4.58,1275,24,44,40,9,1,6,2120156,13784533.947916666,221.62807168030477,89,59,681735.8,531999.19
티그레블랑코,37.5090148,127.0193574,서울 서초구 주흥길 64-17 티그레블랑코,264,"1,000",4.45,1648,14,2,11,3,1,0,2120176,5561380.666666667,293.83581119851857,30,19,681735.8,531999.19
파티시에티모,37.4728356,127.0403748,서울 서초구 언남1길 18,44,600,4.57,1136,20,6,20,5,1,6,2110940,9503001.666666666,357.1714378071423,20,7,681735.8,531999.19
카페 모멘텀,37.4922436,127.0165955,서울 서초구 서초대로54길 46,226,800,4.56,5879,31,2,28,3,1,2,2120173,19655228.49222798,257.331527645623,52,27,681735.8,531999.19
바나프레소 방배역점,37.4814277,126.9968817,"서울 서초구 효령로 117 1층, 2층",303,~100,,649,32,11,9,1,1,2,2120166,18264599.02325581,63.02934878535787,12,3,681735.8,531999.19
투썸플레이스 예술의전당점,37.4837205,127.0119649,서울 서초구 반포대로 34 로얄빌딩 1층,904,200,4.38,3491,31,0,17,6,1,4,2120171,29243434.5,399.4647580394459,31,13,681735.8,531999.19
파티세리 오델리스,37.4886243,126.9948296,서울 서초구 서초대로27길 10-3 1층,30,400,,545,22,2,25,4,1,0,2120164,29038882.303370785,161.2914308826638,39,19,681735.8,531999.19
스타벅스 강남2점,37.5000875,127.0254909,서울 서초구 서초대로77길 27,"3,538",900,4.42,613,41,1,68,6,1,4,2120189,44883635.7075,388.6265712702013,147,97,681735.8,531999.19
해머스미스커피 교대1호점,37.4950129,127.014122,서울 서초구 서초대로51길 11,190,200,,4187,21,2,26,3,1,2,2120173,19655228.49222798,177.71725166244534,46,26,681735.8,531999.19
밀탑 뉴코아아울렛 강남점,37.5100895,127.0069566,서울 서초구 잠원로 69 킴스클럽,42,~100,,868,17,0,4,5,2,4,2130300,,471.4149729059623,8,6,681735.8,531999.19
스타벅스 교대역점,37.494166,127.0140198,서울 서초구 서초중앙로 138,"3,029",400,4.44,4187,20,2,26,3,1,2,2120173,19655228.49222798,83.67622878005788,53,31,681735.8,531999.19
카페 도킹,37.4749933,127.0457522,서울 서초구 동산로19길 54 1층 카페도킹,193,"1,000",4.48,7362,20,4,7,4,0,4,2110943,2779194.833333333,850.9626597719762,8,2,681735.8,531999.19
스타벅스 이수역점,37.4865026,126.9825656,서울 서초구 동작대로 112,"3,299",300,4.47,1653,26,102,48,7,1,6,2120156,13784533.947916666,57.42908089408729,105,70,681735.8,531999.19
고품격커피공장 서초법조타운점,37.4928693,127.0091814,서울 서초구 법원로1길 11 금구빌딩 1층 108호,374,~100,4.49,2390,22,12,17,4,2,2,2120169,24532006.47311828,155.34769368661884,37,20,681735.8,531999.19
커피나무 서래마을점,37.4959857,126.9982676,서울 서초구 서래로 12 1층 커피나무 서래마을점,268,500,4.36,1462,16,3,18,2,0,2,2120165,35367164.69565217,851.5582046448307,31,14,681735.8,531999.19
엔제리너스 강남역점,37.4999776,127.0259679,"서울 서초구 서초대로77길 24 1층 101호, 2층201호","2,080",300,4.44,809,42,1,71,6,1,4,2120189,44883635.7075,356.3088907721,151,100,681735.8,531999.19
라떼또뜨,37.4889375,126.993114,서울 서초구 방배로 170 가야빌딩 104호 라떼또뜨,322,"1,000",,1394,29,2,28,5,1,0,2120164,29038882.303370785,150.88620642867664,42,18,681735.8,531999.19
스타벅스 서울교대점,37.4874652,127.015085,서울 서초구 서초중앙로 64,"2,041",200,4.43,539,31,0,20,3,1,2,2120172,15487229.586206896,289.5495542926888,36,14,681735.8,531999.19
우쿠,37.4788693,127.0407513,서울 서초구 논현로27길 70 101호,51,"1,000",4.75,1800,22,14,14,6,0,0,2120181,12088743.94117647,797.5273701875551,17,6,681735.8,531999.19
푸엘라카페,37.5152038,127.0189508,서울 서초구 강남대로99길 9 1층,58,200,4.39,13997,14,8,17,6,1,0,2120178,18636748.65,162.23072425439742,49,29,681735.8,531999.19
웨이브,37.4759925,127.0436206,서울 서초구 언남11길 34-13 1층,236,900,,670,21,3,15,6,0,4,2120184,14128055.55952381,806.9913315918068,15,5,681735.8,531999.19
장티크(J`antique),37.4935192,127.0211806,서울 서초구 서초대로64길 50,384,"4,000",4.78,6792,30,1,14,4,0,4,2110930,4354048.666666667,626.5554875793332,19,7,681735.8,531999.19
데일리소유,37.487514,126.9862656,서울 서초구 방배중앙로15길 39 뉴씨엘 지하1층 데일리소유,142,"2,000",4.66,1352,26,13,25,6,1,6,2110907,4986874.666666667,402.1590759094152,47,25,681735.8,531999.19
케익공방,37.5011998,127.0244063,서울 서초구 서초대로73길 42 1411호,36,500,4.38,613,38,1,62,9,1,4,2110954,128207013.75,382.2379033070376,143,98,681735.8,531999.19
베이크드뮬란,37.481785,126.9984222,서울 서초구 효령로 131 청권빌딩,478,700,4.22,649,29,10,9,2,1,2,2120166,18264599.02325581,83.11649313645815,11,2,681735.8,531999.19
힐튼가든인 서울강남 카페253,37.4860242,127.0329056,서울 서초구 강남대로 253 1F 힐튼가든인 서울강남,50,100,4.3,3651,32,1,13,8,1,8,2110960,,258.35534309693645,28,18,681735.8,531999.19
언제나 토요일,37.4793994,126.9843376,서울 서초구 방배천로6길 33-1 201호,6,600,,816,28,178,50,6,1,2,2120163,3529162.0,395.716652287214,122,85,681735.8,531999.19
매머드익스프레스 서초센트럴점,37.4873336,127.0117353,서울 서초구 반포대로18길 36 1층 107호,472,"1,000",4.63,1889,26,26,21,5,1,4,2120172,15487229.586206896,470.1122956845528,47,18,681735.8,531999.19
초이고야,37.4858745,126.9957242,서울 서초구 방배로20길 11,489,"9,000",4.46,2787,27,12,27,3,1,2,2110922,21617602.33333333,275.0437453281153,37,14,681735.8,531999.19
카페고도,37.4837572,127.0127859,서울 서초구 효령로52길 12,70,200,,3491,38,0,17,6,1,2,2120171,29243434.5,331.1547459379031,31,13,681735.8,531999.19
카페 돌체 세빛섬점,37.5116397,126.9950932,서울 서초구 올림픽대로 2085-14 세빛섬,"1,394",600,4.22,206,4,0,1,0,0,0,2130297,,917.4846509459056,2,2,681735.8,531999.19
SSO OK,37.4878736,127.0155925,서울 서초구 사임당로8길 13 1층,190,"1,000",4.52,3465,30,0,21,3,1,2,2120172,15487229.586206896,322.40946483746444,37,13,681735.8,531999.19
베를린크란츠,37.5021626,127.0114295,서울 서초구 서초중앙로 229 대영빌딩 1층,743,"1,000",4.45,3043,22,42,4,4,1,8,2120170,37592540.6,407.1172330777856,10,7,681735.8,531999.19
투썸플레이스 서초유니온타워점,37.49584,127.0199309,서울 서초구 서초대로 353 유니온타워 1층,369,~100,4.43,5350,21,2,15,4,0,4,2110930,4354048.666666667,582.3727130492523,24,12,681735.8,531999.19
커피홀베이커리 창동점,37.6561733,127.0424694,서울 도봉구 도봉로136가길 69 삼풍상가 커피홀베이커리 창동점,270,100,4.61,2663,20,1,28,4,0,8,2110409,16290810.444444444,571.292367662187,60,32,254934.85,287108.93
바게트1089,37.6659939,127.0436998,서울 도봉구 도봉로150길 8 이안테라리움 1층 바게트1089,430,"1,000",4.63,1948,24,8,37,10,1,4,2110403,2038160.5,175.2251066150895,75,40,254934.85,287108.93
곤트란쉐리에 방학모비우스스퀘어점,37.6653467,127.0435897,"서울 도봉구 도봉로 684 방학모비우스스퀘어 109,110호",275,200,,1948,23,8,33,8,1,4,2110403,2038160.5,247.1981755766476,71,38,254934.85,287108.93
카페고르,37.6468411,127.0368061,서울 도봉구 도봉로112길 38 1층 카페고르,344,"1,000",4.48,1062,17,2,65,5,1,6,2130147,10214807.333333334,271.15446862031763,116,76,254934.85,287108.93
카페오븐,37.656229,127.040612,서울 도봉구 해등로16길 12 현대아파트 상가동 2층,657,"1,000",4.63,4559,22,1,31,6,0,8,2110401,71763945.66666667,713.2822225155405,63,35,254934.85,287108.93
글림,37.6488679,127.0351572,서울 도봉구 도봉로118길 6-8 1층,"1,020","2,000",4.41,1247,25,2,62,7,1,6,2110396,43936210.13333333,47.69303816208023,123,81,254934.85,287108.93
카페방학,37.6613482,127.0365861,서울 도봉구 도당로6길 30-6 1층,210,500,4.44,7664,30,2,34,4,0,2,2110402,7003194.333333333,962.3898366628272,60,28,254934.85,287108.93
Cafe Open the door,37.6494027,127.0348264,서울 도봉구 도봉로 489 2층,153,"2,000",,1809,26,3,62,8,1,12,2130146,10330537.151515152,86.87110513403242,120,77,254934.85,287108.93
함스브로트과자점,37.6489424,127.0345483,서울 도봉구 도봉로 483,"1,039","6,000",4.34,1113,26,2,62,7,1,6,2130146,10330537.151515152,37.81720314300229,123,81,254934.85,287108.93
몽상가 크레이프,37.6618829,127.04048,서울 도봉구 도봉로143길 30 1층,479,"11,000",4.75,1899,21,1,25,4,0,2,2110402,7003194.333333333,708.5209532841168,52,28,254934.85,287108.93
쌍문동커피,37.6482078,127.0357404,서울 도봉구 도봉로116길 5,361,"1,000",,1271,26,2,61,7,1,6,2110396,43936210.13333333,102.0709126723923,123,82,254934.85,287108.93
도봉관,37.6516116,127.0371718,서울 도봉구 노해로 261,483,"5,000",,1490,22,3,37,7,1,14,2110398,12636847.611111112,396.4238966913032,76,49,254934.85,287108.93
로로옴,37.6763313,127.0452185,서울 도봉구 도봉로152가길 152,233,"5,000",,282,38,1,11,5,1,0,2110411,8410493.066666666,360.8735129401032,26,16,254934.85,287108.93
께,37.647709,127.0359084,서울 도봉구 도봉로114길 29-5 남양캐슬 1층 께 카페,11,~100,,1175,21,2,61,6,1,6,2110396,43936210.13333333,146.86894932561057,121,81,254934.85,287108.93
까누,37.6469747,127.0365862,서울 도봉구 도봉로112길 33 1층 까누,33,100,,1324,19,2,65,5,1,6,2130147,10214807.333333334,247.12521302368637,119,78,254934.85,287108.93
카페더로비,37.6620287,127.0332552,서울 도봉구 방학로 171-5 1층 카페더로비,191,900,4.55,1847,31,1,27,7,0,6,2110393,8539259.333333334,1145.016392654439,44,19,254934.85,287108.93
카페 에덴,37.6629451,127.0183998,서울 도봉구 방학로 306 카페에덴,801,300,4.23,429,11,0,4,0,1,0,2110384,,494.3900347584623,10,7,254934.85,287108.93
무수울,37.6785996,127.0371172,서울 도봉구 도봉로173길 124,299,600,4.37,178,7,0,1,1,0,2,2110397,11024800.04,753.7400919107524,2,2,254934.85,287108.93
수제 디저트카페 꿀소담,37.6550835,127.0437302,서울 도봉구 해등로16길 67,"1,524",600,4.34,20233,24,1,38,7,1,8,2110409,16290810.444444444,411.71872509591617,77,47,254934.85,287108.93
사이커피바,37.663031,127.0333513,서울 도봉구 도당로9길 22 1층 사이커피바,77,900,4.86,1905,26,1,27,3,0,6,2110393,8539259.333333334,1082.336464500566,46,18,254934.85,287108.93
도본,37.6438677,127.0302239,서울 도봉구 우이천로 288-3 1층,187,"1,000",4.73,2160,19,38,36,4,0,2,2110389,,660.3020474926659,77,44,254934.85,287108.93
무궁화로스터즈,37.6469213,127.0360616,서울 도봉구 도봉로112길 23 1층,128,"1,000",4.54,1417,19,2,65,5,1,4,2130147,10214807.333333334,223.95178025218763,120,79,254934.85,287108.93
카페 그리너리티,37.6477328,127.038563,서울 도봉구 노해로62길 80 1층 카페 그리너리티,534,"2,000",,416,22,2,56,5,1,4,2110396,43936210.13333333,353.5807993125712,101,67,254934.85,287108.93
스타벅스 창동이마트점,37.651645,127.046869,서울 도봉구 노해로65길 4,"3,701",100,4.48,3091,28,40,36,8,1,6,2120079,16171248.574468086,185.3728871730846,74,45,254934.85,287108.93
선스랩,37.6475591,127.0364027,서울 도봉구 도봉로114길 35 1층 SUN'S LAB,201,"1,000",4.89,1175,21,2,63,6,1,6,2110396,43936210.13333333,190.62028711280524,121,79,254934.85,287108.93
탐앤탐스 창동본점,37.6518241,127.0400044,서울 도봉구 노해로 285,"1,808",100,4.41,3979,23,1,23,10,0,6,2110401,71763945.66666667,586.2819903413462,58,40,254934.85,287108.93
배스킨라빈스 방학사거리점,37.6647062,127.0424857,서울 도봉구 도봉로 675 1층,"1,938",~100,4.38,1948,22,0,34,8,1,2,2110403,2038160.5,348.51720133487447,63,31,254934.85,287108.93
카페소모임,37.6652195,127.0375182,서울 도봉구 도봉로145길 93 1층 카페 소모임,20,~100,,5048,33,1,32,4,0,2,2110395,2547571.6666666665,646.5071485451292,59,27,254934.85,287108.93
카페152길,37.6696243,127.0454851,서울 도봉구 도봉로152길 29-3 카페152길,781,700,4.4,4806,26,9,28,8,1,2,2110410,22760207.0,258.8829541052687,58,32,254934.85,287108.93
패멩베이커리,37.6480416,127.0356717,서울 도봉구 도봉로116길 4,674,"2,000",4.58,1175,25,2,61,7,1,6,2110396,43936210.13333333,106.86912783865704,124,83,254934.85,287108.93
빈트리 방학점,37.6608244,127.0241711,서울 도봉구 방학로15길 13,184,"2,000",4.15,843,24,0,9,3,0,4,2110386,22626472.0,1034.6351918306132,18,10,254934.85,287108.93
카페작약,37.6489716,127.0356996,서울 도봉구 도봉로118길 10 2층 작약,229,"1,000",4.47,1247,25,2,62,8,1,6,2110396,43936210.13333333,95.25973492032968,121,79,254934.85,287108.93
하뚜,37.6680409,127.0470777,서울 도봉구 마들로 650 도봉월드상가 2층 217-1호,15,~100,4.5,3518,21,8,27,10,1,8,2110410,22760207.0,254.00764505686777,58,34,254934.85,287108.93
와플살롱,37.6419929,127.0350341,서울 도봉구 우이천로20길 37,88,100,4.7,1362,24,1,32,4,0,0,2110399,4205691.0,738.2343964103102,56,26,254934.85,287108.93
카미노커피로스터스,37.6620167,127.0349362,서울 도봉구 도당로 46 1층,977,300,4.42,1938,26,1,31,4,0,2,2110393,8539259.333333334,1023.5171087840102,51,23,254934.85,287108.93
해늘,37.6646924,127.0416395,서울 도봉구 도봉로145길 14 1층 카페 해늘,184,500,,2275,25,0,37,7,1,0,2110403,2038160.5,389.1064482290888,64,29,254934.85,287108.93
커피스미스 도봉역점,37.6773726,127.0454469,서울 도봉구 도봉로152가길 176,302,100,4.37,282,40,1,10,5,1,0,2110411,8410493.066666666,243.91018727997863,25,15,254934.85,287108.93
마이머랭,37.6477923,127.0330725,서울 도봉구 노해로60길 84 1층 마이머랭,221,300,4.61,1809,25,1,59,6,1,2,2130146,10330537.151515152,171.38729070583898,116,78,254934.85,287108.93
투썸플레이스 창동역점,37.652433,127.050467,서울 도봉구 노해로 381,"1,081",100,,5006,25,59,36,7,1,6,2130153,12808578.944444444,254.2834959982837,67,37,254934.85,287108.93
카페7179,37.6466318,127.0389376,서울 도봉구 도봉로110길 97 1층 카페7179,171,600,4.57,416,20,2,52,4,1,6,2110396,43936210.13333333,433.38698517278993,86,53,254934.85,287108.93
브레쉬에비뉴 방학점,37.6620725,127.0280921,서울 도봉구 방학로 216,"1,584",100,4.36,4731,24,0,14,6,0,8,2110390,15640190.0,1352.3265638589962,25,12,254934.85,287108.93
디어트리,37.6577493,127.0165434,서울 도봉구 삼양로162길 51-7 제이스타빌 상가 1층 101호,21,~100,,597,21,1,6,4,1,4,2110384,,343.62390650439664,9,3,254934.85,287108.93
다들림,37.6476273,127.0370251,서울 도봉구 도봉로114길 49,137,300,4.5,1417,20,2,65,6,1,6,2110396,43936210.13333333,232.2446705159365,117,76,254934.85,287108.93
콩블랑제리,37.6514283,127.0143118,서울 도봉구 삼양로142길 33 지하,526,700,4.54,1887,16,0,24,6,1,6,2110383,3965439.121212121,210.06766286303292,37,13,254934.85,287108.93
카페유노,37.668267,127.0451821,서울 도봉구 마들로 657 이에스에이아파트,393,100,4.35,4806,24,8,34,8,1,4,2110410,22760207.0,116.70391690875684,72,40,254934.85,287108.93
뚜레쥬르 창동역점,37.6524187,127.0467756,서울 도봉구 노해로63길 84-10,"1,776",~100,4.38,3695,26,59,39,8,1,4,2120079,16171248.574468086,118.23454976106376,78,48,254934.85,287108.93
디어맘,37.6879886,127.048182,서울 도봉구 마들로 895 상가 1층 103호 디어맘카페,169,300,4.73,1033,19,1,7,9,1,4,2110413,,226.78744389356768,13,6,254934.85,287108.93
설빙 쌍문점,37.6467335,127.0339264,서울 도봉구 도봉로 460,"1,245",~100,4.33,1437,20,1,62,6,1,2,2130147,10214807.333333334,221.5352691130339,120,80,254934.85,287108.93
와겐커피 방학점,37.6667434,127.0449884,서울 도봉구 도봉로150마길 15,"1,975",300,4.31,1948,21,8,37,9,1,6,2110410,22760207.0,105.35281016283628,74,41,254934.85,287108.93
투썸플레이스 쌍문중앙점,37.6484789,127.0349487,서울 도봉구 도봉로 482 우성빌딩,"1,472",100,4.19,1247,25,2,62,7,1,6,2130146,10330537.151515152,26.76847558695912,124,82,254934.85,287108.93
투썸플레이스 쌍문역점,37.646956,127.0334038,서울 도봉구 도봉로 461 우림빌딩,"1,142",~100,4.4,1397,25,1,63,6,1,2,2130145,,218.46996140594044,121,80,254934.85,287108.93
수이아,37.6427531,127.0355706,서울 도봉구 도봉로110라길 70-14 1층 수이아케이크,10,200,4.25,1825,26,1,41,5,0,0,2110399,4205691.0,657.5393150830407,74,39,254934.85,287108.93
카페 매일이 기념일,37.6464032,127.0322404,서울 도봉구 우이천로24길 69 카페 매일이기념일,143,800,4.63,1674,21,1,58,6,1,2,2130145,,329.21507207686426,112,74,254934.85,287108.93
카페 라무이,37.6476272,127.0370517,서울 도봉구 도봉로114길 49 1층 카페 라무이,73,400,4.48,1417,20,2,65,6,1,6,2110396,43936210.13333333,234.30884936400057,117,76,254934.85,287108.93
PLAY PLACE,37.6645455,127.0408252,서울 도봉구 방학로2길 35 2층,49,100,4.72,2275,24,1,37,7,1,0,2110403,2038160.5,447.4894586150636,63,29,254934.85,287108.93
썬스마일,37.6578938,127.0152372,서울 도봉구 해등로36길 4 1층,78,300,4.45,597,23,1,7,4,1,2,2110384,,266.19531988649675,10,3,254934.85,287108.93
밀스,37.6551838,127.0424716,서울 도봉구 해등로16길 46,318,100,4.47,9237,27,1,38,7,0,8,2110409,16290810.444444444,514.5082662941262,78,44,254934.85,287108.93
스타벅스 방학역점,37.6653124,127.0433125,서울 도봉구 도봉로 684,"1,153",~100,,1948,24,8,33,8,1,4,2110403,2038160.5,257.8385041319497,70,37,254934.85,287108.93
아임파인커피,37.6615703,127.0365611,서울 도봉구 도당로6길 30-2 1층 아임파인 커피,27,200,,7664,28,2,34,4,0,2,2110402,7003194.333333333,946.5631527493985,61,28,254934.85,287108.93
메가커피 방학도깨비시장점,37.6651077,127.0360092,서울 도봉구 도당로 81 1층,"1,228",~100,4.37,2241,29,1,29,2,0,4,2130148,3064866.833333333,774.6113969533975,46,19,254934.85,287108.93
우지커피,37.653804,127.0462342,서울 도봉구 노해로63다길 21 1층 우지커피 창동점,932,~100,4.42,3695,21,39,43,8,1,4,2120079,16171248.574468086,149.6546265231015,85,52,254934.85,287108.93
스타벅스 쌍문역점,37.6483734,127.034885,서울 도봉구 도봉로 480,"5,470",200,4.42,1247,25,1,62,7,1,6,2130146,10330537.151515152,32.175934441345575,124,82,254934.85,287108.93
쌍문빵곳간,37.6615772,127.0379154,서울 도봉구 방학로5길 33,125,300,4.45,6445,33,2,34,5,0,0,2110402,7003194.333333333,864.4876034993592,65,31,254934.85,287108.93
여움,37.6609065,127.0412651,서울 도봉구 도봉로139길 10 1층 여움케이크,1,~100,,3108,20,1,20,3,0,2,2110402,7003194.333333333,779.820114722401,41,17,254934.85,287108.93
HAVE A CAKE DAY,37.6458734,127.0319435,서울 도봉구 도봉로109길 35-27 1층,11,300,,1674,18,1,61,5,1,2,2130145,,391.1954852031105,111,70,254934.85,287108.93
뚜레쥬르 창동대우점,37.6429766,127.0374969,서울 도봉구 덕릉로63가길 60,"1,213",~100,4.41,1936,27,2,34,4,0,2,2110399,4205691.0,674.541990392588,61,32,254934.85,287108.93
아아수혈 본점,37.6530985,127.0452518,서울 도봉구 노해로63가길 10,142,100,4.55,3826,17,31,38,7,1,6,2120079,16171248.574468086,218.387267983282,78,50,254934.85,287108.93
카페게이트 방학역점,37.665943,127.0451617,서울 도봉구 도봉로150길 34,929,~100,4.43,1948,22,8,35,10,1,6,2110410,22760207.0,190.2858866470309,69,38,254934.85,287108.93
투썸플레이스 도봉산입구점,37.6875673,127.0416435,서울 도봉구 도봉산4가길 13-11 투썸플레이스,515,200,4.51,1893,10,3,7,4,1,2,2110406,17302216.89473684,447.2049179040487,16,10,254934.85,287108.93
블랙캥거루,37.6330408,127.0398906,서울 도봉구 우이천로 134-1 1층,29,100,5.0,2877,37,1,7,7,0,8,2110379,,1365.613792437134,9,2,254934.85,287108.93
키웨스트 연산군묘점,37.6626331,127.0210949,서울 도봉구 방학로17길 85,"1,719",300,4.25,2424,2,0,5,0,0,4,2110386,22626472.0,733.341159172684,14,10,254934.85,287108.93
이디야커피 도봉역점,37.6779137,127.0447494,서울 도봉구 도봉로 823,718,~100,4.34,2171,37,1,10,4,1,2,2110411,8410493.066666666,197.91745597705815,25,15,254934.85,287108.93
미랭디저트,37.6460797,127.0358328,서울 도봉구 도봉로110길 40 1층 미랭디저트,93,200,4.59,1062,20,1,67,6,1,4,2130147,10214807.333333334,300.0309442336951,119,77,254934.85,287108.93
만스에스테이트 도봉점,37.6828922,127.0469976,서울 도봉구 도봉로180길 20 101동 1층상가 103호 MAN’s Estate,85,100,,835,24,1,9,5,1,4,2110413,,390.2263940430298,14,4,254934.85,287108.93
산과 산 사이 커피로드,37.6878043,127.046564,서울 도봉구 도봉로180가길 96,152,300,4.41,997,16,2,11,8,1,6,2110413,,170.43785924643723,18,9,254934.85,287108.93
이디야커피 도봉산점,37.6875583,127.043742,서울 도봉구 도봉산길 18,119,~100,,2192,13,3,10,6,1,4,2110406,17302216.89473684,292.7312018922539,19,10,254934.85,287108.93
투썸플레이스 방학역점,37.6665974,127.0434528,서울 도봉구 도봉로 696 2층,"1,064",100,4.35,1948,22,8,37,10,1,2,2110410,22760207.0,123.9032947244171,76,40,254934.85,287108.93
숲오,37.6558395,127.0164187,서울 도봉구 우이천로48길 12 1층,15,100,,530,19,1,9,5,1,8,2130144,,280.1383003219433,11,2,254934.85,287108.93
소확행베이커리,37.6475203,127.0356158,서울 도봉구 도봉로114길 21 1층,284,200,4.37,1175,21,2,62,6,1,6,2130147,10214807.333333334,146.6884210521103,122,81,254934.85,287108.93
디저트얌,37.6652036,127.042047,서울 도봉구 도봉로145나길 12 1층,154,~100,4.8,2275,25,0,34,8,1,2,2110403,2038160.5,322.1224791683331,66,32,254934.85,287108.93
메가커피 쌍문점,37.6466777,127.0332362,서울 도봉구 도봉로 457 1층,"2,544",~100,4.4,1397,23,1,60,6,1,2,2130145,,252.577969226884,117,79,254934.85,287108.93
스타벅스 쌍문도봉로점,37.6453681,127.0331965,서울 도봉구 도봉로 444,"2,336",100,4.47,1549,22,1,69,4,1,2,2130145,,386.0668327114699,123,76,254934.85,287108.93
까페 에스트로,37.6543034,127.0444932,서울 도봉구 노해로63가길 31-11,219,100,4.27,20716,17,18,41,7,1,6,2110409,16290810.444444444,311.83844421601515,82,50,254934.85,287108.93
하르당 창동역점,37.6530474,127.0463767,서울 도봉구 노해로63길 79 104호,267,~100,,3695,28,40,40,8,1,4,2120079,16171248.574468086,119.95400088740176,82,52,254934.85,287108.93
온도감,37.6640428,127.0352057,서울 도봉구 도당로 66-1 1층 온도감,164,600,4.5,1570,31,1,28,2,0,4,2110395,2547571.6666666665,886.0128888450093,45,18,254934.85,287108.93
파리바게뜨 신창점,37.639972,127.0395662,서울 도봉구 덕릉로 252 (창동),"2,050",~100,4.28,317,16,1,20,2,0,4,2130150,4369667.4,1053.1346433161773,28,9,254934.85,287108.93
배스킨라빈스 쌍문,37.658829,127.0352817,서울 도봉구 도당로 6 쌍문동LG트윈빌2,"2,839",~100,4.38,5606,24,0,33,6,0,4,2110392,,1135.5320342071177,59,29,254934.85,287108.93
또오당,37.6409,127.0337539,서울 도봉구 우이천로20길 7 상가 1층,57,~100,4.69,1786,22,2,31,4,0,4,2110376,5068097.333333333,774.0866866625075,52,23,254934.85,287108.93
카페티끌,37.6513541,127.0342767,서울 도봉구 노해로 235 1층 티끌,78,"1,000",4.65,1902,22,1,39,5,1,12,2130146,10330537.151515152,305.6191802945279,81,52,254934.85,287108.93
화승꽈배기,37.6471882,127.0356575,서울 도봉구 도봉로114길 22-5,585,"1,000",4.36,1417,21,2,67,6,1,4,2130147,10214807.333333334,180.47034475888972,123,80,254934.85,287108.93
리드브레드 창동점,37.6551664,127.0457043,서울 도봉구 노해로63다길 53 리드브레드,310,100,4.54,20417,20,31,42,9,1,4,2110409,16290810.444444444,285.1503408597157,85,53,254934.85,287108.93
배스킨라빈스 창동역2점,37.6520588,127.0461967,서울 도봉구 노해로65길 17,"1,802",~100,4.46,3695,27,36,35,7,1,4,2120079,16171248.574468086,182.7632142679425,75,48,254934.85,287108.93
이디야커피 창동현대타운점,37.6474037,127.0356475,서울 도봉구 도봉로114길 22,"1,116",~100,4.34,1417,20,2,63,6,1,6,2130147,10214807.333333334,159.1541624429519,122,80,254934.85,287108.93
빵미제빵소,37.6542206,127.0449129,서울 도봉구 노해로63나길 8-6,304,300,4.81,5530,19,31,40,7,1,6,2110409,16290810.444444444,274.41006017239425,83,51,254934.85,287108.93
eeeyo,37.651461,127.0143059,서울 도봉구 삼양로142길 33 일층,177,500,4.69,1887,16,0,24,6,1,6,2110383,3965439.121212121,213.48124069847344,37,13,254934.85,287108.93
샤빙 눈꽃빙수&디저트 도봉본점,37.6553852,127.0358484,서울 도봉구 도봉로129길 45 1층 샤빙 도봉본점,172,~100,4.52,3410,26,1,26,8,0,12,2110398,12636847.611111112,758.143826390054,56,29,254934.85,287108.93
한니베,37.643432,127.0308589,서울 도봉구 우이천로 280-1 1층 한니베,33,200,4.72,1706,20,9,36,5,0,0,2110389,,669.7730672600309,77,43,254934.85,287108.93
뻬지아슈,37.6670687,127.0448507,서울 도봉구 도봉로150다길 28 지음재힐스 상가 101호 A,178,400,4.68,3155,23,8,37,8,1,6,2110410,22760207.0,70.12628444114016,75,42,254934.85,287108.93
스위트가든,37.6619674,127.0374794,서울 도봉구 방학로5길 16,71,~100,4.29,1585,29,2,35,5,0,2,2110402,7003194.333333333,858.1763077211643,66,32,254934.85,287108.93
마이요거트서울,37.6473659,127.0378454,서울 도봉구 도봉로114길 60-5,56,200,4.88,1073,20,2,59,6,1,6,2110396,43936210.13333333,309.7001073247197,106,70,254934.85,287108.93
스위츠루스트레초콜릿,37.6539996,127.0518674,서울 도봉구 마들로11길 25 동산빌딩 105호,133,200,4.84,4812,18,132,24,8,1,2,2130153,12808578.944444444,375.760917934618,44,24,254934.85,287108.93
카페더문,37.6652186,127.0415469,서울 도봉구 도봉로147길 20 1층 Cafe the moon,73,~100,4.67,3155,28,0,36,8,1,0,2110403,2038160.5,349.427910286269,67,32,254934.85,287108.93
위드그레텔,37.6556342,127.0367506,서울 도봉구 도봉로129길 32 1층,148,500,4.74,3410,25,1,26,7,0,12,2110398,12636847.611111112,799.6280546399255,60,31,254934.85,287108.93
파리바게트 우이점,37.655008,127.0132834,서울 도봉구 삼양로 582 503-11,822,~100,4.36,863,16,1,21,5,1,4,2110382,6993878.333333333,120.12249582727392,30,10,254934.85,287108.93
가배미혼,37.6486367,127.0341601,서울 도봉구 도봉로115길 4,49,700,4.31,1113,26,1,62,7,1,6,2130146,10330537.151515152,48.33779096322651,124,82,254934.85,287108.93
빽다방 쌍문세라믹점,37.6592406,127.0352421,서울 도봉구 도당로 10 1층 105호,867,~100,,5606,26,0,32,6,0,4,2110392,,1181.1128773283262,57,29,254934.85,287108.93
비올레따양과점,37.6467635,127.0314811,서울 도봉구 도봉로109길 35-5 1층 비올레따양과점,107,200,4.65,1674,27,0,56,6,1,2,2130145,,351.71237309369235,107,72,254934.85,287108.93
아레아스터디카페,37.6434763,127.0379629,서울 도봉구 도봉로110라길 69-32 3층 4층,20,~100,4.5,1936,22,2,39,4,0,2,2110399,4205691.0,640.3883503596074,74,43,254934.85,287108.93
투썸플레이스 도봉보건소점,37.6561903,127.0395212,서울 도봉구 도봉로 578,667,~100,4.3,2580,24,1,26,8,0,10,2110401,71763945.66666667,797.147142156409,57,32,254934.85,287108.93
와플대학 방학역캠퍼스,37.6662715,127.0421867,서울 도봉구 도봉로149길 12,48,~100,,4027,23,8,37,8,1,0,2110403,2038160.5,229.07089471351225,79,43,254934.85,287108.93
PUKUPUKU,37.6504156,127.0270204,서울 도봉구 노해로45길 17,105,700,,1897,34,0,8,2,0,4,2110387,3036270.0,705.517217680163,12,4,254934.85,287108.93
어떤하루,37.640099,127.0374575,서울 도봉구 덕릉로57길 30 삼익쇼핑 3층 카페 어떤하루,42,100,4.73,512,20,1,24,2,0,4,2130149,9576441.666666666,978.6626686294268,35,12,254934.85,287108.93
카페 매로우,37.6375715,127.0390975,서울 도봉구 덕릉로60다길 34,24,100,4.63,317,26,1,13,5,0,4,2130150,4369667.4,1178.0968238123655,24,10,254934.85,287108.93
던킨 쌍문역점,37.6473437,127.0342548,서울 도봉구 도봉로 468 홍일빌딩101,"1,477",~100,4.41,1437,23,1,60,6,1,4,2130147,10214807.333333334,148.19386638430646,118,79,254934.85,287108.93
배스킨라빈스 쌍문역점,37.6475207,127.0343683,"서울 도봉구 도봉로 468 (창동) 104, 104-1호","2,592",~100,4.41,1437,23,1,60,6,1,4,2130147,10214807.333333334,126.61938489689268,118,79,254934.85,287108.93
라이프랩스터디카페,37.6488209,127.0525153,서울 도봉구 노해로70길 81 4층 라이프랩스터디카페,25,~100,4.3,3039,25,30,9,6,1,10,2130153,12808578.944444444,460.48018237569664,13,5,254934.85,287108.93
커피g,37.664734,127.0421096,서울 도봉구 도봉로145길 8 2층,129,100,4.44,1948,23,0,34,8,1,2,2110403,2038160.5,362.0261258595771,62,30,254934.85,287108.93
메가커피 창동어울림점,37.6554511,127.0417908,서울 도봉구 해등로16길 32 1층,"1,108",~100,4.34,9237,23,1,31,5,0,6,2110409,16290810.444444444,581.4041003617457,68,38,254934.85,287108.93
"더, 샐러드",37.6464546,127.0377637,서울 도봉구 도봉로110길 75 1층 더샐러드,49,100,5.0,416,18,2,61,5,1,4,2110396,43936210.13333333,361.4992462021607,108,69,254934.85,287108.93
배스킨라빈스 방학,37.6663062,127.0459614,서울 도봉구 도봉로150길 43 116호,"1,281",~100,4.2,1948,21,8,34,9,1,6,2110410,22760207.0,199.48772725024543,68,38,254934.85,287108.93
탐앤탐스 도봉산입구점,37.687697,127.0429879,서울 도봉구 도봉산4길 4-13,619,~100,4.23,2192,11,3,10,5,1,2,2110406,17302216.89473684,336.5637479062778,19,11,254934.85,287108.93
파리바게뜨 방학점,37.6625248,127.0329388,서울 도봉구 방학로 174 (방학동),"2,064",~100,4.26,2210,31,1,26,6,0,6,2110393,8539259.333333334,1140.9360200240333,45,20,254934.85,287108.93
헬로우옐로우,37.646423,127.0256316,서울 도봉구 노해로38길 7 1층 1호,248,300,4.48,1299,33,64,25,3,0,4,2110362,4379036.833333333,835.9280414242056,38,14,254934.85,287108.93
커피에반하다 방학역점,37.6682438,127.0447443,서울 도봉구 마들로 649-20,219,~100,4.54,3155,23,8,35,8,1,2,2110410,22760207.0,92.22908215275426,74,42,254934.85,287108.93
달리는커피 창동역점,37.6521065,127.0461883,서울 도봉구 노해로65길 17 1층 102호,206,~100,4.58,3695,27,36,35,7,1,4,2120079,16171248.574468086,179.79107028997947,75,48,254934.85,287108.93
데이즈쌍문,37.6466888,127.0326153,서울 도봉구 도봉로109길 11 1층,237,200,4.4,1520,24,1,59,6,1,2,2130145,,283.59686652113845,114,76,254934.85,287108.93
메가커피 도봉중앙점,37.6842668,127.0442498,서울 도봉구 도봉로181길 30 1층,648,~100,4.42,436,15,2,14,4,0,4,2110413,,536.2685953515021,20,6,254934.85,287108.93
카페알로 창동점,37.6496898,127.0377694,서울 도봉구 노해로62길 36,232,100,4.47,2527,28,2,53,8,1,8,2110396,43936210.13333333,294.2167098049296,105,70,254934.85,287108.93
달콤Pick,37.6607779,127.0377508,서울 도봉구 방학로5길 44 (쌍문동8-8) 달콤Pick,21,~100,4.34,6445,31,1,34,6,0,2,2110402,7003194.333333333,942.7590607890302,62,29,254934.85,287108.93
티스푼,37.6625163,127.0360844,서울 도봉구 방학로 145 티스푼,96,~100,4.58,1938,26,1,31,3,0,2,2110395,2547571.6666666665,909.3854751758088,54,23,254934.85,287108.93
도봉산커피,37.6882745,127.0419507,서울 도봉구 도봉산4가길 4 1층,635,200,4.43,1893,10,3,8,4,1,2,2110406,17302216.89473684,393.1860885438745,15,9,254934.85,287108.93
파리바게뜨 도봉점,37.6839253,127.0457514,서울 도봉구 도봉로 891,837,~100,4.3,416,17,1,13,4,1,8,2110413,,485.2615248276181,18,6,254934.85,287108.93
공차 쌍문역점,37.6475757,127.0343973,서울 도봉구 도봉로 468,"1,846",~100,4.52,1437,23,1,60,6,1,4,2130147,10214807.333333334,120.07732270484291,119,79,254934.85,287108.93
메가커피 방학역점,37.6658885,127.0453918,서울 도봉구 도봉로150길 40,"2,326",~100,4.37,1948,21,8,33,10,1,6,2110410,22760207.0,204.75994349036625,67,38,254934.85,287108.93
일구구일스콘,37.6505732,127.0136528,서울 도봉구 삼양로142길 3 1층,100,300,4.87,1887,15,0,25,5,1,6,2110383,3965439.121212121,109.30183684312212,41,17,254934.85,287108.93
이륙커피,37.6339069,127.0407094,서울 도봉구 우이천로4길 23 1F 이륙커피,4,~100,,701,30,1,8,6,0,6,2110404,1492448.7894736845,1397.0723130990214,11,4,254934.85,287108.93
에그토스트 카페트리,37.6536613,127.0508883,서울 도봉구 노해로69길 26 창동씨티월드 106호 카페트리,"1,033",~100,4.8,4812,19,122,35,7,1,2,2130153,12808578.944444444,283.35809315341163,61,32,254934.85,287108.93
메가커피 도봉역점,37.6773715,127.0447342,서울 도봉구 도봉로 817 1층,"1,303",~100,4.4,2610,38,1,10,5,1,2,2110411,8410493.066666666,255.18771321350508,25,15,254934.85,287108.93
크로플덕,37.6825624,127.0480047,서울 도봉구 도봉로180길 38 1층 110호,14,~100,,835,23,1,9,5,1,6,2110413,,395.2265515476478,15,4,254934.85,287108.93
매크로커피 쌍문점,37.6468128,127.0360302,서울 도봉구 도봉로112길 24 1층,2,~100,,1073,19,2,65,5,1,4,2130147,10214807.333333334,232.86409899472093,120,79,254934.85,287108.93
카페봄날,37.6668434,127.0359924,서울 도봉구 도당로15길 36 송학휴스테이아파트 상가 1층,193,~100,4.1,1565,27,1,16,2,0,4,2110394,7881055.333333333,732.5320530844333,28,10,254934.85,287108.93
이디야 쌍문동점,37.6488154,127.0272472,서울 도봉구 노해로 162 1층,395,~100,4.38,2278,36,0,12,3,0,6,2110388,3701387.8333333335,657.2781718932948,17,7,254934.85,287108.93
컴포즈커피 쌍문현대점,37.6581366,127.0327266,서울 도봉구 해등로 218 보성빌딩 108호,826,~100,4.43,4986,28,0,28,6,0,4,2110392,,1071.7258811426022,45,23,254934.85,287108.93
와is케이크,37.6383352,127.0347894,서울 도봉구 우이천로 214 1층,159,100,4.79,910,30,2,21,6,0,4,2130149,9576441.666666666,798.1569072438972,35,13,254934.85,287108.93
쌍문동꽈배기BY꽈백최선생,37.6577052,127.0384282,서울 도봉구 방학로3길 127,379,~100,4.46,5556,22,1,34,5,0,6,2110400,3489955.4545454546,962.0001091172342,64,35,254934.85,287108.93
커피배우다,37.6506119,127.0137833,서울 도봉구 삼양로142길 7 1층 커피배우다,87,200,4.53,1887,15,0,24,5,1,6,2110383,3965439.121212121,113.34424818754373,40,16,254934.85,287108.93
악어빵집,37.6502316,127.0517097,서울 도봉구 노해로70길 46 주공19단지종합상가 127호,92,~100,,2888,24,58,18,6,1,12,2130153,12808578.944444444,478.7045339914076,34,17,254934.85,287108.93
배스킨라빈스 창동역1호,37.6534911,127.0497292,서울 도봉구 마들로11길 65,"1,477",~100,4.42,5503,19,59,39,9,1,2,2130153,12808578.944444444,179.58848978689738,74,43,254934.85,287108.93
이디야커피 창동제일점,37.6489565,127.0524713,서울 도봉구 노해로70길 81,181,~100,4.59,3039,25,38,9,6,1,12,2130153,12808578.944444444,474.257795688045,16,7,254934.85,287108.93
배스킨라빈스 신창점,37.637672,127.0374411,서울 도봉구 덕릉로 220,"1,705",~100,4.47,1811,25,2,15,7,0,6,2130150,4369667.4,1031.8969028033484,27,11,254934.85,287108.93
보네르호두파이,37.665801,127.0465712,서울 도봉구 마들로 624 대상타운현대아파트,92,100,4.66,4452,21,8,32,10,1,6,2110410,22760207.0,277.0146045165194,66,38,254934.85,287108.93
아트플로레,37.6539832,127.0518182,서울 도봉구 마들로11길 25 동산빌딩104호,1,~100,,4812,17,132,24,8,1,2,2130153,12808578.944444444,371.1142880493885,45,24,254934.85,287108.93
빽다방 쌍문역점,37.6485734,127.0343601,서울 도봉구 도봉로 479,"1,574",~100,4.35,1113,26,1,62,7,1,6,2130146,10330537.151515152,31.290416589784225,124,82,254934.85,287108.93
르봉뺑 방학점,37.6663849,127.0342536,서울 도봉구 도당로13길 45 1층우측,210,100,4.54,1588,28,1,21,3,0,6,2110394,7881055.333333333,890.6218637715112,32,12,254934.85,287108.93
초록카페,37.6843792,127.0438001,서울 도봉구 도봉로181길 38 1층 우측,84,100,4.6,436,12,2,14,4,0,4,2110413,,558.3458972233373,19,6,254934.85,287108.93
마이림,37.6498974,127.0230094,서울 도봉구 우이천로34길 13 1층,126,200,4.82,1606,33,1,8,1,0,4,2110387,3036270.0,816.2497244815709,12,5,254934.85,287108.93
타코다방,37.6502842,127.0514429,서울 도봉구 노해로70길 46 주공아파트 상가동 1층 141호 타코다방,45,~100,4.69,2888,24,58,21,6,1,10,2130153,12808578.944444444,457.6813658272889,38,19,254934.85,287108.93
파리바게뜨 쌍문역점,37.6480497,127.0340804,서울 도봉구 도봉로 473 파리바게뜨,"2,121",~100,4.34,1397,24,1,62,6,1,4,2130146,10330537.151515152,84.75589629104768,124,82,254934.85,287108.93
"시,공간",37.6483791,127.0317448,"서울 도봉구 도봉로113길 43 카페 시,공간",10,~100,,1539,31,1,56,7,1,4,2130146,10330537.151515152,262.42361767157104,109,74,254934.85,287108.93
저스트시즌,37.6451082,127.0335736,서울 도봉구 도봉로110다길 26 1층,51,100,4.88,1659,25,2,71,4,1,2,2130145,,403.8410607730472,125,78,254934.85,287108.93
카페 크레프리,37.6513662,127.0138899,서울 도봉구 삼양로144길 18 2층,99,100,4.48,1887,15,0,24,6,1,6,2110383,3965439.121212121,197.5776999939279,37,13,254934.85,287108.93
라이트앤솔트,37.6547874,127.0456296,서울 도봉구 노해로63다길 41 라이트 앤 솔트 카페,73,100,,7253,22,31,43,8,1,4,2110409,16290810.444444444,258.31900038241406,85,53,254934.85,287108.93
뚜레쥬르 창동동아점,37.656856,127.049503,서울 도봉구 노해로69길 97 동아청솔아파트,915,~100,4.32,5313,16,54,24,7,1,6,2130153,12808578.944444444,438.96325518376,43,21,254934.85,287108.93
빽다방 창동역서부점,37.6533379,127.0465466,서울 도봉구 노해로63다길 10 1층,268,~100,,3695,26,50,42,8,1,4,2120079,16171248.574468086,106.00691425072412,84,52,254934.85,287108.93
파스쿠찌 창동점,37.6546793,127.0386461,서울 도봉구 도봉로 558 카페파스쿠찌,289,~100,4.45,4559,25,1,25,7,0,8,2110401,71763945.66666667,757.0008911136168,59,34,254934.85,287108.93
폼폼커피베이비,37.6759233,127.045242,서울 도봉구 도봉로164길 8 폼폼커피베이비,66,~100,4.54,2765,35,1,10,5,1,0,2110411,8410493.066666666,405.9073177830383,26,16,254934.85,287108.93
더벤티 창동점,37.6604318,127.0496047,서울 도봉구 마들로 550 1동 103호,234,~100,4.06,414,19,0,5,3,0,12,2110412,,824.5867817679939,9,1,254934.85,287108.93
아마스빈 창동역점,37.6522033,127.0464667,서울 도봉구 노해로65길 18,465,~100,4.53,3695,28,40,36,7,1,4,2120079,16171248.574468086,154.42736358540046,76,48,254934.85,287108.93
이디야커피 방학점,37.6621985,127.0332304,서울 도봉구 방학로 171 1층 이디야커피,770,~100,,1847,32,1,27,6,0,6,2110393,8539259.333333334,1136.9562420637828,45,19,254934.85,287108.93
파리바게뜨 창동역동부점,37.6533408,127.0491187,"서울 도봉구 마들로11길 73 콤마프라자 1층 105,106호","2,564",~100,4.37,5503,21,59,40,8,1,2,2130153,12808578.944444444,123.70357398619366,74,43,254934.85,287108.93
와플대학 쌍문캠퍼스,37.6576527,127.0371384,서울 도봉구 해등로 176,672,~100,4.45,5422,25,1,31,5,0,4,2110400,3489955.4545454546,1026.1491296095023,58,28,254934.85,287108.93
한손에커피,37.6496695,127.0341825,서울 도봉구 노해로60길 38,98,~100,4.54,1849,25,2,59,7,1,12,2130146,10330537.151515152,124.84501589969256,113,74,254934.85,287108.93
알레싸커피앤티,37.6673876,127.044895,서울 도봉구 도봉로150다길 28 지음재힐스 2층 상가 203호 알레싸 커피 앤 티,388,300,4.41,3155,23,8,36,8,1,6,2110410,22760207.0,56.23137003416885,73,41,254934.85,287108.93
우리밀과자점해밀,37.6576393,127.0214309,서울 도봉구 해등로 312-3 2F,115,300,4.67,768,12,0,6,0,0,2,2110386,22626472.0,740.3745223176103,9,3,254934.85,287108.93
메가커피 창동이마트점,37.6518997,127.0462742,서울 도봉구 노해로65길 11,"1,111",~100,4.35,3695,26,36,36,6,1,6,2120079,16171248.574468086,190.45964594452568,74,46,254934.85,287108.93
카페그루 방학점,37.6670902,127.0332398,서울 도봉구 시루봉로 204,70,~100,4.08,2220,21,1,15,2,0,6,2110394,7881055.333333333,972.2149928623176,22,8,254934.85,287108.93
던킨 창동하나로점,37.6549999,127.0519999,서울 도봉구 마들로11길 20,"1,372",~100,4.31,4812,20,132,14,8,1,4,2130153,12808578.944444444,427.5717107274194,28,16,254934.85,287108.93
방학동안,37.6618921,127.0392776,서울 도봉구 도봉로143길 50 1층 방학동안,64,~100,4.55,1899,30,1,26,2,0,2,2110402,7003194.333333333,763.2807897791624,54,26,254934.85,287108.93
허니소담 베이글,37.6546912,127.0446351,서울 도봉구 해등로16길 86,133,~100,4.48,20716,19,16,41,8,1,6,2110409,16290810.444444444,321.0050316331044,82,49,254934.85,287108.93
이디야커피 쌍문중앙점,37.6519968,127.0363902,서울 도봉구 도봉로 519 이디야쌍문중앙점,486,~100,4.22,1482,24,2,32,7,1,16,2110398,12636847.611111112,402.8788015662856,66,42,254934.85,287108.93
이디야커피 쌍문역점,37.6494339,127.034723,서울 도봉구 도봉로117길 4,626,~100,4.3,1809,26,2,62,8,1,12,2130146,10330537.151515152,89.73177601082217,120,77,254934.85,287108.93
웰리스,37.6778595,127.0444508,서울 도봉구 도봉로167길 7 행운빌라 지하1층,89,~100,4.5,2171,38,0,10,4,1,2,2110411,8410493.066666666,214.5224744464301,25,15,254934.85,287108.93
카페일월생,37.6577991,127.0369319,서울 도봉구 해등로 180 쌍문프라자 112호,139,100,4.52,3007,27,1,30,5,0,4,2110400,3489955.4545454546,1038.4973878549024,58,28,254934.85,287108.93
파리바게뜨 방학선덕점,37.656812,127.0276982,서울 도봉구 시루봉로 67 (방학동) 청구아파트 상가,"2,649",~100,4.33,1898,26,0,9,3,0,8,2110392,,1099.673217981812,14,4,254934.85,287108.93
더벤티 신방학점,37.6625563,127.0332422,서울 도봉구 방학로 172 1층,559,~100,4.56,1813,28,1,27,6,0,6,2110393,8539259.333333334,1115.9283002008094,45,20,254934.85,287108.93
카페 도로시,37.6377136,127.0377303,서울 도봉구 덕릉로 222 도로시 카페&헤어,49,~100,4.72,546,21,2,15,6,0,6,2130150,4369667.4,1057.166187154661,24,9,254934.85,287108.93
자연식빵 도봉역점,37.6774524,127.0447243,서울 도봉구 도봉로 819,620,100,4.34,2610,37,1,10,5,1,2,2110411,8410493.066666666,246.8810254345798,25,15,254934.85,287108.93
탐앤탐스 창동점,37.6514869,127.0463569,서울 도봉구 노해로 341 창동신원리베르텔,631,~100,4.27,3695,25,35,36,6,1,6,2120079,16171248.574468086,222.4720041901093,74,45,254934.85,287108.93
모노치즈 방학역점,37.6659962,127.0437381,서울 도봉구 도봉로150길 8 103호,184,~100,4.69,1948,24,8,37,10,1,4,2110403,2038160.5,174.03812259547755,75,40,254934.85,287108.93
빙수의여신 도봉점,37.6659223,127.0352843,서울 도봉구 도당로13나길 3,26,~100,,2523,30,1,22,3,0,4,2110394,7881055.333333333,810.4709100411818,35,13,254934.85,287108.93
아마스빈 방학역점,37.6662094,127.0455972,서울 도봉구 도봉로150길 43 ESA아파트 127호,348,~100,4.53,1948,22,8,34,10,1,6,2110410,22760207.0,185.1368949854568,69,39,254934.85,287108.93
알콩달콤,37.6465094,127.0488665,서울 도봉구 노해로66길 111,54,~100,4.53,251,24,0,7,5,1,10,2120079,16171248.574468086,284.45607522546214,7,0,254934.85,287108.93
앙글,37.6476489,127.037232,서울 도봉구 도봉로110바길 29,,~100,,1417,21,2,65,6,1,6,2110396,43936210.13333333,247.3258552834239,116,76,254934.85,287108.93
순백,37.6513552,127.0344862,서울 도봉구 노해로 237 1층 순백,69,200,4.59,1902,22,1,41,6,1,12,2130146,10330537.151515152,303.9959087256432,83,53,254934.85,287108.93
카페그린버디,37.6915798,127.0468188,서울 도봉구 마들로 932 평화문화진지 102동 카페그린버디,115,~100,4.59,997,8,2,4,4,1,0,2110406,17302216.89473684,257.46919200012326,9,5,254934.85,287108.93
설나루,37.664185,127.0281444,서울 도봉구 시루봉로 149 도봉그린빌라,413,~100,4.21,3060,14,0,9,4,0,10,2110390,15640190.0,1356.561082695337,17,8,254934.85,287108.93
이디야커피 방학역점,37.669837,127.0425597,서울 도봉구 도봉로153길 15,279,~100,4.54,3598,28,8,26,8,1,4,2130151,,300.16018385148425,59,33,254934.85,287108.93
24시 무인카페 만월경 창동점,37.6505793,127.0414411,서울 도봉구 해등로 79 24시 무인카페 만월경 창동점,,~100,,2935,22,2,21,6,0,6,2110396,43936210.13333333,623.9904888861513,41,26,254934.85,287108.93
소중플라워떡케익,37.6568416,127.0492786,서울 도봉구 노해로69길 103 동아청솔아파트상가동 103호 소중플라워떡케익,7,~100,,5313,16,53,24,7,1,6,2130153,12808578.944444444,430.8181512322547,44,21,254934.85,287108.93
메가커피 창동대우점,37.6435198,127.0394262,서울 도봉구 덕릉로63가길 17,387,~100,,1304,20,2,28,4,0,2,2110399,4205691.0,703.5605654338204,48,24,254934.85,287108.93
에밀리아카페 쌍문점,37.6436429,127.0305411,서울 도봉구 우이천로 284 1층,152,~100,4.37,1706,20,24,37,5,0,2,2110389,,664.683839890063,78,43,254934.85,287108.93
카페루씰,37.677169,127.0438286,서울 도봉구 도봉로169나길 55 1층,181,~100,4.48,2171,34,1,11,5,1,2,2110411,8410493.066666666,308.2673774619923,25,15,254934.85,287108.93
사라의 정원,37.6355241,127.0421029,서울 도봉구 덕릉로60길 113,56,~100,4.4,701,20,1,8,3,0,4,2110404,1492448.7894736845,1309.585669061277,11,5,254934.85,287108.93
컴포즈커피 방학선덕점,37.6561299,127.0277863,서울 도봉구 시루봉로 59,363,~100,4.38,576,25,0,9,3,0,8,2110392,,1033.1811673579905,13,4,254934.85,287108.93
메가커피 신창시장점,37.6390091,127.0386805,서울 도봉구 덕릉로 238,"1,956",~100,4.41,512,22,1,19,2,0,4,2130150,4369667.4,1125.1782353411718,30,11,254934.85,287108.93
제이몽디저트,37.6629421,127.046224,서울 도봉구 방학로 56 1층 제이몽디저트,97,100,,2741,25,0,24,6,0,8,2110412,,535.4361596149382,48,23,254934.85,287108.93
그랩커피,37.6472868,127.0300437,"서울 도봉구 도봉로109길 62 1층, 그랩커피",84,~100,4.65,9205,35,0,46,5,1,6,2110388,3701387.8333333335,436.9403946232204,83,51,254934.85,287108.93
SEOLLEDA COFFEETABLE,37.646297,127.0366358,서울 도봉구 도봉로110길 55 1층,93,300,4.46,1062,21,2,66,5,1,4,2130147,10214807.333333334,309.6814678223776,118,76,254934.85,287108.93
김화자 카페,37.6475163,127.0370598,서울 도봉구 도봉로114길 50,249,300,4.63,1324,20,2,65,6,1,6,2110396,43936210.13333333,241.01725333271312,116,75,254934.85,287108.93
와플대학 방학캠퍼스,37.6624829,127.0311915,서울 도봉구 방학로12길 4 1층 와플대학,175,~100,4.42,2210,25,1,17,5,0,6,2110390,15640190.0,1279.6285850978338,31,16,254934.85,287108.93
투썸플레이스 창동이마트점,37.6520676,127.0468367,서울 도봉구 노해로65길 14-3,676,~100,4.31,3695,27,51,38,8,1,6,2120079,16171248.574468086,145.313200110002,76,46,254934.85,287108.93
뚜레쥬르 방학더브러마트점,37.6605877,127.0242624,서울 도봉구 방학로15길 19,"3,444",~100,4.23,843,25,0,10,3,0,4,2110386,22626472.0,1049.2491053197334,19,10,254934.85,287108.93
만랩커피 창동역점,37.6526576,127.0464825,서울 도봉구 노해로63길 82 1층,439,~100,4.37,3695,27,40,37,8,1,4,2120079,16171248.574468086,123.59886849230898,79,51,254934.85,287108.93
일프로스터디카페,37.6577921,127.0368052,서울 도봉구 해등로 180 2층,32,~100,4.71,3007,26,1,30,5,0,4,2110400,3489955.4545454546,1035.6874775615684,59,29,254934.85,287108.93
메가커피 쌍문세라믹점,37.659531,127.0351692,서울 도봉구 도당로 14,"2,725",~100,4.34,6641,25,0,33,5,0,4,2110392,,1194.9673427873838,54,25,254934.85,287108.93
나우커피 서울방학점,37.6670027,127.0377387,서울 도봉구 도당로17길 13,2,~100,,5002,31,1,24,3,0,0,2110394,7881055.333333333,577.8268415306068,40,15,254934.85,287108.93
이디야커피 창동대우점,37.643451,127.0387446,서울 도봉구 덕릉로63가길 30 1층,197,~100,,1309,21,2,34,3,0,2,2110399,4205691.0,676.3865954188223,55,27,254934.85,287108.93
코코호도 쌍문점,37.657762,127.0367769,서울 도봉구 해등로 180,428,~100,4.49,3007,25,1,29,5,0,4,2110400,3489955.4545454546,1031.9518160836983,57,28,254934.85,287108.93
파리바게뜨 쌍문신원점,37.6581876,127.0355608,서울 도봉구 해등로 190 신원주상복합2차아파트 신원프라자,"2,830",~100,4.3,5216,23,0,31,6,0,4,2110392,,1065.7331823383884,59,29,254934.85,287108.93
더벤티 방학사거리점,37.6659539,127.0426883,서울 도봉구 도봉로 689 1층,371,~100,,2275,24,8,39,9,1,2,2110403,2038160.5,221.64575527826116,80,43,254934.85,287108.93
보나뻬띠브레드,37.6546076,127.0137231,서울 도봉구 삼양로 574-29 1층 101호,66,200,,530,18,1,23,5,1,8,2110382,6993878.333333333,169.75707695013963,33,12,254934.85,287108.93
베이크팡,37.669903,127.0417355,서울 도봉구 도봉로153길 29 베이크팡,127,~100,4.63,6486,28,8,22,6,1,4,2130151,,347.99586638699964,51,31,254934.85,287108.93
메가커피 쌍문역점,37.6492516,127.0353932,서울 도봉구 도봉로 492 1층 메가커피,"1,199",~100,4.35,287,23,3,61,8,1,6,2110396,43936210.13333333,91.93581867010082,120,79,254934.85,287108.93
스마일찹쌀꽈배기 방학동점,37.6698115,127.0408714,서울 도봉구 도당로27길 55 1층 좌측,68,~100,4.24,25759,27,0,20,5,1,4,2110405,6272902.666666667,394.37542664194615,43,25,254934.85,287108.93
매머드익스프레스 창동점,37.6521498,127.0491776,서울 도봉구 마들로11가길 6-25 1층,"1,423",~100,4.58,5503,26,59,40,8,1,2,2130153,12808578.944444444,170.2558923705194,74,43,254934.85,287108.93
숲속마을카페,37.6681892,127.032266,서울 도봉구 시루봉로15다길 2,79,~100,4.7,952,16,1,11,2,0,6,2110391,,1059.5867267927667,15,4,254934.85,287108.93
던킨 도봉구청점,37.668175,127.0465362,서울 도봉구 마들로 650,"2,592",~100,4.46,3518,24,8,29,10,1,6,2110410,22760207.0,212.7566681050289,60,35,254934.85,287108.93
라스커피,37.6453387,127.0324112,서울 도봉구 도봉로 441 드림하우스,94,~100,4.63,1520,21,1,63,4,1,2,2130145,,417.8780737230271,118,74,254934.85,287108.93
더벤티 창동역점,37.653261,127.0490817,서울 도봉구 마들로11길 73 1층 101호,520,~100,4.42,5503,21,59,40,8,1,2,2130153,12808578.944444444,119.37805938691903,74,43,254934.85,287108.93
상범이네 만두&도너츠,37.6656748,127.0361423,서울 도봉구 도당로13가길 12 도깨비시장내 1층,4,200,,2241,29,1,27,2,0,4,2110394,7881055.333333333,743.9747980826216,43,17,254934.85,287108.93
하베르스터디카페,37.6576011,127.0460004,서울 도봉구 마들로13길 165 세영빌딩 7층,95,~100,,7086,20,0,21,4,0,8,2110409,16290810.444444444,516.1575435844934,44,24,254934.85,287108.93
쥬씨 차얌 방학역점,37.6667458,127.0458554,서울 도봉구 도봉로150길 43 esa상가 104호,596,~100,4.46,1948,21,8,34,8,1,8,2110410,22760207.0,162.7527721364021,68,39,254934.85,287108.93
꽈백최선생 창동점,37.6535064,127.049749,서울 도봉구 마들로11길 65 1층 꽈백최선생,"1,114",~100,4.36,5503,19,59,39,9,1,2,2130153,12808578.944444444,181.64311394791412,74,43,254934.85,287108.93
감성커피 도봉점,37.6826717,127.0452312,서울 도봉구 도봉로181가길 29,66,~100,,2872,21,1,9,4,1,2,2110413,,347.15157226447513,15,5,254934.85,287108.93
코코호도 도봉구청점,37.6681383,127.0467946,서울 도봉구 마들로 650 103-2호(방학동),281,~100,4.53,3518,23,8,28,10,1,6,2110410,22760207.0,232.9180490750317,60,35,254934.85,287108.93
컴포즈커피 신창시장점,37.6402956,127.0394177,서울 도봉구 덕릉로 253,142,~100,,535,17,1,20,2,0,4,2130150,4369667.4,1014.9459646312026,28,9,254934.85,287108.93
루트비커피 쌍문점,37.6553864,127.0369032,서울 도봉구 도봉로129길 23,330,~100,4.56,1236,25,1,30,9,0,12,2110398,12636847.611111112,776.0384441353004,64,34,254934.85,287108.93
몬키토베이커리,37.6425345,127.0371775,서울 도봉구 덕릉로63가길 43 상가동 1층 114호 몬키토베이커리,1,100,,1936,28,1,32,5,0,2,2110399,4205691.0,711.4651309156712,54,27,254934.85,287108.93
창포원 북카페 비상,37.6895443,127.0471961,서울 도봉구 마들로 916 2층 창포원 북카페 비상,140,~100,,997,12,2,7,6,1,2,2110406,17302216.89473684,89.48925433373356,12,6,254934.85,287108.93
셀라,37.6518117,127.0462088,"서울 도봉구 노해로65길 11 , 한성빌딩107호",94,~100,4.34,3695,26,35,36,6,1,6,2120079,16171248.574468086,201.5843802468006,74,46,254934.85,287108.93
메가커피 창동신창점,37.6340806,127.0411677,서울 도봉구 우이천로4길 31,622,~100,4.14,701,26,1,5,6,0,6,2110404,1492448.7894736845,1429.1434657545528,8,4,254934.85,287108.93
윈썸35,37.6610449,127.0213366,서울 도봉구 해등로32가길 40,198,~100,4.32,6148,10,0,6,0,0,4,2110386,22626472.0,787.842042969885,15,10,254934.85,287108.93
프레쉬스터디카페 도봉구청점,37.6694647,127.0464817,서울 도봉구 마들로 664 킴스타워 3층,46,~100,4.46,4806,25,9,25,8,1,4,2110410,22760207.0,292.1889162833869,49,26,254934.85,287108.93
24시 무인카페 만월경 녹천점,37.6458472,127.0529813,서울 도봉구 덕릉로 398 116호,5,~100,,1244,18,0,5,6,1,8,2130154,4106042.3333333335,190.56078989243008,5,0,254934.85,287108.93
제리당,37.6468228,127.0320541,서울 도봉구 도봉로109길 23 제리당,74,~100,,1674,28,1,58,6,1,2,2130145,,308.031667926475,112,75,254934.85,287108.93
감성커피 방학동점,37.6693214,127.0452101,서울 도봉구 도봉로152길 26 109호,261,~100,4.56,3155,27,9,30,10,1,2,2110410,22760207.0,218.3731914080013,64,37,254934.85,287108.93
베리베리,37.6474719,127.0348549,서울 도봉구 도봉로110나길 27,326,~100,4.52,1437,23,1,60,6,1,4,2130147,10214807.333333334,129.0821615001787,119,79,254934.85,287108.93
카페휴지,37.6592022,127.041736,서울 도봉구 도봉로136길 7 106호,97,~100,4.55,2359,17,1,24,4,0,4,2110408,2302375.0,853.830551888094,47,22,254934.85,287108.93
파리바게뜨 방학중앙점,37.6660024,127.0426988,서울 도봉구 도봉로 689,"1,680",~100,4.28,2275,24,8,39,9,1,2,2110403,2038160.5,216.8894677190021,81,44,254934.85,287108.93
쥬씨 차얌 쌍문동점,37.6581247,127.0357625,서울 도봉구 해등로 190 신원주상복합2차아파트,"1,238",~100,4.41,5216,24,1,30,6,0,4,2110400,3489955.4545454546,1060.1620918609403,59,30,254934.85,287108.93
기가델리,37.6545913,127.0457419,"서울 도봉구 노해로63다길 41 1층 1013호, 107호 기가델리",152,~100,,7253,21,31,43,8,1,4,2110409,16290810.444444444,236.18105855480223,85,53,254934.85,287108.93
이디야커피 창동중앙점,37.652745,127.046428,서울 도봉구 노해로63길 78,709,~100,4.37,3695,27,40,37,8,1,4,2120079,16171248.574468086,123.8953252135686,79,51,254934.85,287108.93
더빅,37.6824596,127.0455141,서울 도봉구 도봉로 873 화성빌딩,111,~100,4.32,403,21,1,9,4,1,2,2110413,,322.1663435179062,15,5,254934.85,287108.93
바게트브라운 창동점,37.6433365,127.0383949,서울 도봉구 덕릉로63가길 36 1층 바게트브라운,23,~100,4.75,1309,22,2,36,3,0,2,2110399,4205691.0,671.8520576827274,61,31,254934.85,287108.93
어떤하루,37.6516135,127.044297,서울 도봉구 노해로 325 북부등기소 1층카페 어떤하루,35,~100,4.67,872,18,16,33,7,1,8,2120079,16171248.574468086,348.1340298429572,69,44,254934.85,287108.93
밀콩,37.6435513,127.0388609,서울 도봉구 덕릉로63가길 26,164,~100,4.51,1309,21,2,34,3,0,2,2110399,4205691.0,672.4331577915125,59,31,254934.85,287108.93
이디야커피 도봉보건소사거리점,37.656772,127.0388739,서울 도봉구 해등로 157,599,~100,4.41,4679,24,1,27,6,0,8,2110401,71763945.66666667,876.7800456933686,61,34,254934.85,287108.93
트리킹즈커피 창동점,37.6557777,127.0403297,서울 도봉구 해등로 139 1층 105호,69,~100,4.35,2627,22,1,30,7,0,8,2110401,71763945.66666667,713.3560546511626,62,35,254934.85,287108.93
더벤티 도봉점,37.68291,127.0475989,서울 도봉구 도봉로180길 28 201동 1층 101호,514,~100,,835,23,1,9,5,1,4,2110413,,411.8362534613123,14,4,254934.85,287108.93
스노우플러스,37.6749064,127.0475566,서울 도봉구 마들로 726,298,~100,4.45,2460,32,1,11,4,0,2,2110411,8410493.066666666,545.8116256150463,30,19,254934.85,287108.93
아토,37.6401959,127.039172,서울 도봉구 덕릉로 251,74,~100,4.55,535,18,1,21,2,0,4,2130150,4369667.4,1016.5184757992496,31,11,254934.85,287108.93
더보틀플레이스,37.6417163,127.0364569,서울 도봉구 덕릉로59길 62-1,21,~100,4.2,1102,27,1,26,5,0,2,2110399,4205691.0,783.6944972002356,42,18,254934.85,287108.93
카페봄,37.6583394,127.0339236,서울 도봉구 해등로 206 금호아파트,130,~100,4.58,6641,22,0,26,5,0,4,2110392,,1082.182202505952,47,26,254934.85,287108.93
이디야커피 선덕고사거리점,37.6573587,127.0280664,서울 도봉구 해등로 255 에벤에셀아파트,633,~100,4.23,1898,27,0,10,3,0,10,2110392,,1133.4310809581243,16,5,254934.85,287108.93
영미쿠키,37.6683233,127.0344024,서울 도봉구 시루봉로17길 4 1층 영미쿠키,11,~100,5.0,1186,22,1,13,2,0,2,2110391,,873.5678091937629,20,6,254934.85,287108.93
파리바게뜨 쌍문초교점,37.6498396,127.0260789,서울 도봉구 노해로41길 26 (쌍문동),"1,226",~100,4.3,2685,37,0,8,2,0,4,2110387,3036270.0,771.6685992537773,12,4,254934.85,287108.93
더 시루봉,37.6691768,127.0312177,서울 도봉구 시루봉로15길 57,37,~100,4.4,1292,13,0,7,2,0,4,2110391,,1164.072934745149,10,4,254934.85,287108.93
쥬씨 창동점,37.653223,127.0468255,서울 도봉구 노해로63다길 6,"1,026",~100,4.35,3695,25,59,41,9,1,4,2120079,16171248.574468086,79.96788170108029,83,52,254934.85,287108.93
선호하다,37.6569868,127.0282433,서울 도봉구 시루봉로 70 동방빌딩,123,~100,,886,26,0,9,3,0,8,2110392,,1090.001783320026,13,4,254934.85,287108.93
커피집,37.6578506,127.0271455,서울 도봉구 해등로 268 청구아파트 A 상가 2층 커피집,57,~100,4.34,810,29,0,12,5,0,12,2110386,22626472.0,1222.808414123327,19,8,254934.85,287108.93
구뜨케이크,37.6488108,127.0370732,서울 도봉구 도봉로118길 34 1층 103호(창동),1,~100,,1417,24,2,57,7,1,8,2110396,43936210.13333333,209.1474751086589,112,75,254934.85,287108.93
엉클,37.6429994,127.0359843,서울 도봉구 도봉로110라길 70-4 1층 cafe uncle,35,~100,4.6,1825,28,2,41,5,0,2,2110399,4205691.0,635.7553450011512,82,47,254934.85,287108.93
컴포즈커피 방학신동아점,37.6600924,127.0278251,서울 도봉구 시루봉로 106,176,~100,,4224,35,0,14,5,0,12,2110386,22626472.0,1357.9454706634128,27,13,254934.85,287108.93
카페인중독 창동점,37.6542479,127.0454752,서울 도봉구 해등로16길 104-8 1층,78,~100,4.36,7253,22,31,43,8,1,4,2110409,16290810.444444444,232.18604685462452,85,53,254934.85,287108.93
한살림 카페잇다,37.6589538,127.0283804,서울 도봉구 시루봉로6길 13 1층,97,~100,,810,33,0,14,5,0,10,2110392,,1276.3116256185567,23,9,254934.85,287108.93
루이네북카페,37.6558363,127.0284352,서울 도봉구 시루봉로 56 상가동 1층,,~100,,576,26,0,9,4,0,14,2110392,,973.4926689951764,13,4,254934.85,287108.93
파리바게뜨 도봉1동점,37.6728871,127.0439004,서울 도봉구 도봉로 767,996,~100,4.36,5295,38,1,12,3,0,4,2130152,1542021.6666666667,599.5829639410669,34,24,254934.85,287108.93
파리바게뜨 창동녹천점,37.64581,127.0532843,"서울 도봉구 덕릉로 398 주공아파트17단지 상가동 109호,119호",839,~100,4.34,1244,18,0,5,6,1,8,2130154,4106042.3333333335,210.0519086645304,5,0,254934.85,287108.93
파리바게뜨 창동역서부점,37.6530739,127.0465102,서울 도봉구 노해로63길 79 (창동),"2,292",~100,4.26,3695,27,46,41,8,1,4,2120079,16171248.574468086,107.96089714415145,83,52,254934.85,287108.93
커피공장2010,37.6505341,127.0134122,서울 도봉구 삼양로 532,133,~100,4.38,1887,14,0,26,5,1,2,2110383,3965439.121212121,108.69382938059094,43,18,254934.85,287108.93
노브,37.6690246,127.041097,서울 도봉구 도당로27길 38,45,~100,,3094,28,4,31,6,1,4,2110405,6272902.666666667,326.759742892585,62,35,254934.85,287108.93
Gree N,37.6467205,127.0354196,서울 도봉구 도봉로112길 14 1층,29,~100,,1175,19,1,65,5,1,4,2130147,10214807.333333334,221.0323849769064,120,79,254934.85,287108.93
카페84,37.6567711,127.0384594,서울 도봉구 해등로17길 6,50,~100,4.53,5556,24,1,26,6,0,8,2110401,71763945.66666667,909.3396105905404,61,33,254934.85,287108.93
카페향,37.6682314,127.0332661,서울 도봉구 시루봉로15나길 11,30,~100,,957,21,1,12,2,0,6,2110391,,972.1882310385406,17,5,254934.85,287108.93
24시무인카페 만월경 쌍문역점,37.6463725,127.0343162,서울 도봉구 도봉로110길 11,1,~100,,1437,21,1,67,6,1,2,2130147,10214807.333333334,253.0634662613713,123,80,254934.85,287108.93
아엘커피,37.6644284,127.0441026,서울 도봉구 도봉로146길 21,57,~100,,1948,26,8,32,7,1,6,2110403,2038160.5,342.2092409519907,61,30,254934.85,287108.93
맘스케익 서울도봉 방학점,37.6628845,127.0331523,서울 도봉구 방학로10길 10,20,~100,4.64,1813,28,1,26,4,0,6,2110393,8539259.333333334,1105.3983467917446,44,18,254934.85,287108.93
컴포즈커피 덕성여대점,37.6510379,127.0131792,서울 도봉구 삼양로 538 1층,158,~100,4.5,530,15,0,24,5,1,6,2110383,3965439.121212121,168.2366072217652,38,14,254934.85,287108.93
달달하당,37.661599,127.0389418,서울 도봉구 도봉로141길 55 1층,15,~100,4.25,1899,29,1,31,4,0,2,2110402,7003194.333333333,806.966804251028,61,30,254934.85,287108.93
봄아내케이크,37.6515251,127.0359764,서울 도봉구 도봉로 517 2층 봄아내케이크,,~100,,1490,23,2,44,6,1,14,2130146,10330537.151515152,341.0253401813089,84,53,254934.85,287108.93
레빈츠,37.6468054,127.0359138,서울 도봉구 도봉로112길 22 1층 레빈츠,,~100,,1073,20,2,65,5,1,4,2130147,10214807.333333334,228.6465133314352,120,79,254934.85,287108.93
이디야커피 창동하나로마트점,37.6551095,127.0508516,서울 도봉구 마들로11길 20 1층,128,~100,4.33,4812,18,125,26,7,1,6,2130153,12808578.944444444,349.5339113479545,49,27,254934.85,287108.93
소소한 일상 카페,37.6803542,127.0462461,서울 도봉구 도봉로170길 12,74,~100,4.74,4438,32,1,16,6,1,2,2110413,,104.99174457896318,28,12,254934.85,287108.93
유명한빵집,37.6483723,127.0329848,서울 도봉구 도봉로113길 20,"1,049",~100,4.45,1783,26,1,59,6,1,2,2130146,10330537.151515152,154.42007721671936,120,80,254934.85,287108.93
메이크잇스터디카페,37.6557439,127.0417358,서울 도봉구 해등로16길 25 201~204호,56,~100,4.46,2663,22,1,30,5,0,6,2110409,16290810.444444444,600.6018230647356,63,35,254934.85,287108.93
1994양과점,37.617319,126.9208303,서울 은평구 연서로26길 9-5 도원빌딩1층,290,"12,000",,1941,28,0,50,6,1,8,2110472,12995672.866666667,187.68386031282367,133,95,400047.37,470181.73
37.5 녹번점,37.6035171,126.9353113,서울 은평구 통일로 636 미드스퀘어 8층,"1,844","2,000",4.46,2743,13,0,11,5,1,4,2110490,,290.65866222236724,17,7,400047.37,470181.73
롱브레드 은평한옥마을점,37.6408761,126.9377463,서울 은평구 연서로 530,"1,651","6,000",4.22,359,3,0,10,2,0,2,2110492,4658758.666666667,1728.0464586431349,11,6,400047.37,470181.73
카페 쓸,37.60738,126.9333458,서울 은평구 통일로 684,15,"2,000",,581,21,0,15,4,1,2,2110489,,459.1394838708007,31,11,400047.37,470181.73
플럽커피,37.6184178,126.9192664,서울 은평구 연서로29길 7-11 3층,331,"5,000",4.52,1218,35,0,58,7,1,2,2130167,12453369.333333334,166.53872144709814,142,102,400047.37,470181.73
1인1잔,37.6409897,126.9379008,서울 은평구 연서로 534,"3,028","58,000",4.33,359,3,0,10,2,0,2,2110492,4658758.666666667,1744.528553020323,12,7,400047.37,470181.73
휘낭시에르,37.619701,126.9194133,서울 은평구 연서로29길 14-15 1층 휘낭시에르,291,600,,1237,35,0,55,8,1,2,2130167,12453369.333333334,160.58015485828628,144,101,400047.37,470181.73
스페이스헬레나,37.6421136,126.9389505,서울 은평구 진관길 4 2층,351,"4,000",,359,2,0,8,1,0,2,2110492,4658758.666666667,1869.6337548725653,10,6,400047.37,470181.73
YM ESPRESSO ROOM,37.6409201,126.9208133,서울 은평구 진관3로 43-9 래미안 909동 1층 상가 101호,478,"7,000",4.59,363,10,1,14,6,1,4,2120089,223300539.5833333,494.4178086324341,26,12,400047.37,470181.73
1인1상,37.6409722,126.937943,서울 은평구 연서로 534 4층/5층,"1,043","9,000",4.24,359,3,0,10,2,0,2,2110492,4658758.666666667,1747.5853008943534,12,7,400047.37,470181.73
해례커피,37.6206836,126.9176401,서울 은평구 통일로83길 19 1층,571,"4,000",4.52,4438,43,0,53,7,1,10,2110465,7096540.555555556,350.70456814260854,138,98,400047.37,470181.73
YM COFFEE HOUSE,37.6191328,126.9176614,서울 은평구 연서로29길 21-8 1층,545,"8,000",4.62,4794,39,0,56,7,1,2,2130167,12453369.333333334,295.11968786325014,139,100,400047.37,470181.73
꼬알라파이,37.6011296,126.9303733,서울 은평구 은평로 204 1층,15,200,,1814,19,0,18,9,1,2,2110488,14623565.333333334,474.7371992254871,25,15,400047.37,470181.73
산보클럽,37.5965699,126.9075751,서울 은평구 가좌로11가길 2 2호,18,"5,000",4.8,1453,22,0,9,3,0,4,2110448,,740.4088545947576,19,9,400047.37,470181.73
HUGA,37.6348572,126.9195953,서울 은평구 진관2로 19 3층 휴가,"1,469","1,000",4.47,2644,15,1,21,4,1,2,2120089,223300539.5833333,222.61401079719548,42,23,400047.37,470181.73
이룸 커피 프로젝트,37.6136698,126.9322018,서울 은평구 불광로 76 2층,83,"3,000",4.93,3819,26,0,14,5,1,2,2110487,5665454.523809524,410.1810956184916,24,7,400047.37,470181.73
좋앗나빙수,37.6097656,126.9289116,서울 은평구 불광로 20 NC백화점 불광점 9층 좋앗나빙수,566,"1,000",4.39,3819,29,0,23,6,1,4,2130170,13103999.948717948,116.18837266674733,48,17,400047.37,470181.73
폴스타 베이커스,37.6171882,126.9070131,서울 은평구 서오릉로 256 1층~3충,460,800,,2218,16,1,3,0,0,6,2110447,,1110.7472692173542,7,3,400047.37,470181.73
데일리,37.6185214,126.9179523,서울 은평구 연서로27길 16-9 1-4층,324,"2,000",4.48,1222,38,0,56,7,1,2,2110464,11199694.857142856,274.3680480825841,138,99,400047.37,470181.73
부트브레드,37.5966766,126.9184554,서울 은평구 은평로8길 46,176,500,4.66,1530,28,4,39,8,1,4,2110470,1805737.6666666667,332.0966783821886,64,25,400047.37,470181.73
레인드롭,37.6405437,126.9374593,서울 은평구 연서로 524,30,200,5.0,359,3,0,10,2,0,2,2110492,4658758.666666667,1694.1450935313649,11,6,400047.37,470181.73
flot,37.6031048,126.9263041,서울 은평구 서오릉로 20-1,328,"5,000",4.57,1701,24,7,15,9,1,2,2110477,3531377.111111111,451.1177987760129,33,17,400047.37,470181.73
파브스커피,37.5903914,126.9117742,서울 은평구 증산로15가길 15 1층 파브스커피,154,"1,000",4.76,1115,28,1,19,3,1,8,2110452,1483597.888888889,183.8093271430249,31,14,400047.37,470181.73
옥춘당,37.5955635,126.9180357,서울 은평구 응암로21가길 22 자선메르시안아파트 1층 101호,53,~100,,7056,30,1,36,6,1,4,2130166,2909571.333333333,401.6241554692688,54,23,400047.37,470181.73
다과헌,37.6217845,126.9195804,서울 은평구 통일로 883 2층 다과헌,485,"2,000",4.69,4035,46,2,49,6,1,6,2130167,12453369.333333334,334.0759230202727,130,89,400047.37,470181.73
릴렉세이션 포인트,37.6024678,126.9145442,서울 은평구 연서로3길 12 1.2층,100,800,4.5,5399,31,3,26,4,1,2,2110459,6339823.75,439.0557281832522,48,19,400047.37,470181.73
선과점,37.6027733,126.9091112,서울 은평구 갈현로7가길 11 1층,18,"11,000",4.7,1419,30,0,14,2,0,4,2110445,,734.3690394882924,22,9,400047.37,470181.73
알렉스,37.6220897,126.9184225,서울 은평구 통일로85길 11 1층,309,"3,000",4.75,1949,45,0,48,5,1,2,2110465,7096540.555555556,412.0818002639286,121,83,400047.37,470181.73
필구커피,37.5930033,126.9155566,서울 은평구 불광천길 442-29 1층,192,"10,000",4.7,853,31,1,30,5,1,2,2110463,9249502.888888888,267.21610506928886,49,24,400047.37,470181.73
럭키문,37.6003206,126.9250215,서울 은평구 은평로12길 8-4 1층 101호,34,400,,1102,26,9,23,10,0,4,2110478,2000000.0,664.8525325532819,43,20,400047.37,470181.73
픽커스 구파발역점,37.6338708,126.9185774,서울 은평구 진관1로 21-39 메이플카운티 1차 1층 106호,149,100,,4201,15,1,19,5,1,2,2120089,223300539.5833333,322.31299783311954,39,22,400047.37,470181.73
사생활,37.5935795,126.9210133,서울 은평구 응암로22길 25 2층,"1,012","2,000",4.85,1570,33,1,23,6,0,0,2130166,2909571.333333333,704.5559316288902,27,10,400047.37,470181.73
스타벅스 진관DT점,37.6501787,126.9361968,서울 은평구 연서로 645,666,600,,365,7,0,2,0,0,0,2110492,4658758.666666667,1972.810086854743,3,2,400047.37,470181.73
카페뤽상부르,37.6172588,126.9181784,서울 은평구 연서로25길 6-11,340,"2,000",,1338,36,0,53,6,1,4,2110464,11199694.857142856,315.66009311888746,133,93,400047.37,470181.73
새시로 연신내점,37.6229241,126.9176556,서울 은평구 통일로87길 17-12 1층,17,100,,1307,40,1,36,5,0,2,2110465,7096540.555555556,526.757927578209,91,63,400047.37,470181.73
근린커피,37.5942122,126.9153752,서울 은평구 응암로21길 23,697,"4,000",4.48,4541,33,1,28,5,2,4,2110463,9249502.888888888,373.8496988436676,46,20,400047.37,470181.73
외계인방앗간 은평뉴타운점,37.6347817,126.9193556,서울 은평구 진관2로 19 휴먼프라자 1층 104호,662,400,4.41,2644,15,1,21,4,1,2,2120089,223300539.5833333,225.28404702930337,42,23,400047.37,470181.73
치즈당,37.6207795,126.9191694,서울 은평구 통일로83길 5-4 1층 치즈당,116,900,,4797,41,0,53,8,1,2,2130167,12453369.333333334,255.6015102077336,142,100,400047.37,470181.73
오 파티세리,37.6095622,126.9166967,서울 은평구 연서로 120-1 1층,40,~100,,2934,26,1,26,5,1,8,2110466,,208.0197091135969,41,13,400047.37,470181.73
봉스디,37.6079372,126.9316522,서울 은평구 통일로63길 1 1층 우측,92,700,4.57,736,27,0,20,6,1,2,2110489,,321.61086156481286,41,13,400047.37,470181.73
어뮤즈멜로우,37.6183677,126.9175561,서울 은평구 연서로27길 20 2F,341,"1,000",,1222,38,0,52,6,1,2,2110464,11199694.857142856,312.0803395616415,134,96,400047.37,470181.73
시즈닝테이블,37.6172104,126.921943,서울 은평구 연서로28길 19 1층 시즈닝테이블,205,"2,000",,2722,28,0,43,6,1,7,2110472,12995672.866666667,215.4647437882353,117,83,400047.37,470181.73
숨비로와,37.5994045,126.9207244,서울 은평구 은평로8길 9 1층 카페 숨비로와,366,300,4.83,1996,28,10,31,10,1,6,2120091,16105588.393939396,462.117162868276,57,23,400047.37,470181.73
카페 새시로,37.6062853,126.9210387,서울 은평구 서오릉로7길 14 1층 카페 새시로,62,"1,000",,2343,26,8,17,3,1,2,2110476,,153.07006903850186,36,20,400047.37,470181.73
다용도실,37.614105,126.9199078,서울 은평구 연서로20길 17 1층,112,"1,000",4.74,1522,30,0,32,5,1,6,2110473,4486308.666666667,382.0999628202541,72,45,400047.37,470181.73
데일리 베이크 하우스,37.599886,126.9314721,서울 은평구 은평로 220 e편한세상캐슬아파트 상가 B동 106호,226,"1,000",4.61,2673,14,0,15,8,1,2,2110488,14623565.333333334,394.7566195382324,20,12,400047.37,470181.73
어레이버오브러브,37.6230572,126.9178886,서울 은평구 통일로87길 17-9 1층,99,500,4.72,1042,37,1,33,5,0,2,2110465,7096540.555555556,528.1176452144474,85,59,400047.37,470181.73
그릭앤바이츠,37.6350853,126.9180011,서울 은평구 통일로 1034 은평 스카이뷰 자이 1층 133호,31,~100,,2644,10,1,21,4,1,2,2120089,223300539.5833333,200.0352097778389,45,24,400047.37,470181.73
하리,37.6202608,126.9227088,서울 은평구 연서로 253-7 하리,268,"1,000",4.69,556,27,3,44,10,1,5,2130168,15073235.0,205.09282664043397,119,87,400047.37,470181.73
잔원,37.5965994,126.9075208,서울 은평구 가좌로11가길 2 1호,31,"9,000",4.68,1453,22,0,9,3,0,4,2110448,,743.9753008444158,19,9,400047.37,470181.73
제니앤폴,37.6228688,126.9185561,서울 은평구 통일로87길 17-23 1층,206,700,5.0,1042,37,2,38,5,1,4,2110465,7096540.555555556,481.25130320773854,98,69,400047.37,470181.73
카페와인드,37.5995736,126.9229664,서울 은평구 응암로34가길 17,234,"1,000",4.49,1273,27,10,23,10,0,6,2120091,16105588.393939396,659.8537853768831,46,18,400047.37,470181.73
기린작업실,37.5870575,126.9195698,서울 은평구 응암로12길 28 2층,15,"1,000",5.0,770,31,1,12,4,0,8,2110469,1127364.2222222222,693.4595300674488,20,10,400047.37,470181.73
디저트39 녹번역점,37.6005545,126.9335412,서울 은평구 은평로 240 B3층 304호 (힐스테이트 녹번역상가 1층),97,~100,,2743,9,0,14,5,1,2,2110488,14623565.333333334,199.4670051008848,19,11,400047.37,470181.73
더듸,37.6187409,126.9158117,서울 은평구 연서로27길 33 1층 카페 더듸,20,"3,000",,1205,30,0,50,4,1,10,2110464,11199694.857142856,458.584115931772,126,90,400047.37,470181.73
