,index,name,latitude,longitude,address,review,savecount,visitorreviewscore
0,0,까폼,37.5248885,127.0380137,서울 강남구 선릉로153길 18 지하1층,"1,458","59,000",4.52
1,1,애리아,37.5231850,127.0420820,서울 강남구 도산대로 420 청담스퀘어 1층 121호,85,"10,000",
2,2,미미면가,37.5200428,127.0211102,서울 강남구 강남대로160길 29,"1,486","72,000",4.27
3,3,런던 베이글 뮤지엄 도산점,37.5260746,127.0364493,"서울 강남구 언주로168길 33 1, 2층",220,"19,000",
4,4,땀땀,37.5003861,127.0279819,서울 강남구 강남대로98길 12-5,"4,317","61,000",4.39
5,5,을지다락 강남,37.4999202,127.0287954,서울 강남구 강남대로96길 22 2층,"1,705","22,000",4.53
6,6,달래해장,37.5188941,127.0207898,서울 강남구 압구정로2길 46 강남시장 1층 달래해장,394,"22,000",
7,7,꽁티드툴레아,37.5255700,127.0369045,서울 강남구 도산대로49길 39,"2,763","89,000",
8,8,현우동,37.5170958,127.0243687,서울 강남구 논현로149길 53 래성빌딩 1층,872,"53,000",4.34
9,9,호별관,37.5089127,127.0354164,서울 강남구 논현로114길 22 1층 호별관,78,"11,000",4.85
10,10,대우부대찌개 강남본점,37.5027171,127.0351854,서울 강남구 테헤란로25길 34,"1,360","25,000",4.42
11,11,도산분식 도산공원점,37.5237122,127.0379130,서울 강남구 도산대로49길 10-6 젤로빌딩,"1,111","29,000",4.22
12,12,썸띵어바웃커피,37.5028451,127.0278394,"서울 강남구 강남대로102길 30 1, 2, 3층","1,958","37,000",4.42
13,13,100년영동생갈비,37.5071361,127.0240587,서울 강남구 봉은사로1길 37 1층 100년영동생갈비,173,100,
14,14,테라스룸,37.5246397,127.0426809,서울 강남구 선릉로152길 37 올리브빌딩 테라스룸,412,"48,000",4.3
15,15,고기준 청담점,37.5256016,127.0455088,서울 강남구 도산대로75길 21,177,"3,000",4.87
16,16,호족반,37.5254194,127.0367182,서울 강남구 언주로164길 39 1층,"1,500","66,000",4.34
17,17,쮸즈,37.5195117,127.0246812,서울 강남구 도산대로17길 13,"1,487","61,000",4.37
18,18,팀호완 삼성점,37.5114017,127.0568554,서울 강남구 봉은사로86길 30 1층,"3,181","40,000",4.38
19,19,부타이 1막,37.5061805,127.0600012,서울 강남구 테헤란로88길 22,"1,438","35,000",4.48
20,20,뉴만두집,37.5278703,127.0389285,서울 강남구 압구정로 338,999,"60,000",4.36
21,21,진미평양냉면,37.5161247,127.0360501,서울 강남구 학동로 305-3,"2,232","59,000",4.31
22,22,딤딤섬 파르나스몰점,37.5088767,127.0605861,서울 강남구 테헤란로 521 파르나스몰 지하 1층,"2,544","11,000",4.32
23,23,바비레드 강남본점,37.5026625,127.0278787,서울 강남구 봉은사로6길 39 바비레드,"3,000","29,000",4.41
24,24,엘빈에비뉴라운지,37.4989459,127.0285053,"서울 강남구 강남대로92길 13 지하1, 2층",20,400,
25,25,선데이 버거 클럽,37.5265580,127.0367721,서울 강남구 언주로170길 37 201호,659,"34,000",4.53
26,26,갓잇 도산공원점,37.5253345,127.0355021,서울 강남구 언주로164길 24 아크로스빌딩 지상1층 GODEAT,"1,116","16,000",4.62
27,27,중앙해장,37.5082495,127.0655417,서울 강남구 영동대로86길 17 육인빌딩,"3,897","65,000",4.42
28,28,가람국시,37.5167846,127.0340799,서울 강남구 언주로135길 13,481,"9,000",
29,29,트리오드,37.4997078,127.0295421,서울 강남구 강남대로94길 28 유니언타운 L층,"1,305","30,000",4.56
30,30,스케줄청담,37.5245911,127.0426883,서울 강남구 선릉로152길 37 1층,722,"37,000",
31,31,카페 노티드 청담,37.5241930,127.0383006,서울 강남구 도산대로53길 15 1층,"15,482","76,000",4.44
32,32,페어링룸,37.5254116,127.0478303,서울 강남구 도산대로81길 14 청담동 1층,"5,268","40,000",4.49
33,33,달마시안,37.5262798,127.0345435,서울 강남구 압구정로42길 42,717,"43,000",
34,34,신동궁감자탕 역삼본점,37.4978625,127.0329328,서울 강남구 테헤란로10길 21,"1,149","26,000",4.3
35,35,차이들 언주점,37.5070406,127.0355304,서울 강남구 언주로107길 46 지하 1층 B01호,81,"1,000",
36,36,구구당,37.5032957,127.0278842,서울 강남구 강남대로102길 35 구구당,"3,122","49,000",4.51
37,37,카페무니 압구정본점,37.5267821,127.0398016,서울 강남구 압구정로56길 16,338,"25,000",
38,38,우미학,37.5239078,127.0294669,서울 강남구 압구정로30길 51,346,"8,000",4.41
39,39,고메램 삼성점,37.5090498,127.0571402,"서울 강남구 삼성로96길 15 송영빌딩, 삼성역 5번 출구, 도심공항터널 건너편에 위치하고 있습니다.전화 주시면 자세한 위치 설명을 해드립니다.tel. 02 - 553 -","1,121","7,000",4.47
40,40,알로하테이블 코엑스파르나스몰점,37.5095449,127.0608688,서울 강남구 테헤란로 521 파르나스몰 지하1층,"1,375","2,000",4.37
41,41,포스터리 베이커,37.5272754,127.0355823,서울 강남구 압구정로42길 25-5 포스터리 베이커,400,"27,000",
42,42,다운타우너 청담,37.5240852,127.0385500,서울 강남구 도산대로53길 14 1층,"3,141","32,000",4.61
43,43,후추포인트,37.5030882,127.0273318,서울 강남구 봉은사로6길 30 1층,590,"34,000",
44,44,60년전통 신촌황소곱창 논현직영점,37.5097425,127.0230474,"서울 강남구 강남대로128길 10 1, 2층",598,"1,000",4.43
45,45,다이닝 목로,37.5234615,127.0378109,서울 강남구 도산대로49길 6-7 1층 목로,413,"9,000",4.65
46,46,묵전,37.5260670,127.0353880,서울 강남구 언주로168길 22,723,"27,000",4.45
47,47,우와,37.5191307,127.0203178,서울 강남구 강남대로158길 17 1층,905,"38,000",4.49
48,48,해목,37.5215104,127.0383167,서울 강남구 선릉로145길 14,427,"42,000",4.5
49,49,리틀넥 청담,37.5242561,127.0377825,서울 강남구 도산대로51길 17,"2,160","74,000",4.5
50,50,장인닭갈비 강남점,37.4996548,127.0274938,서울 강남구 테헤란로1길 19,"1,832","18,000",4.28
51,51,을밀대 강남점,37.4953797,127.0303690,"서울 강남구 테헤란로4길 46 쌍용플래티넘밸류 B-147,148,149호",694,"10,000",4.31
52,52,벽돌해피푸드 압구정점,37.5254935,127.0382686,서울 강남구 도산대로51길 36 1층,546,"32,000",4.46
53,53,아우어베이커리 가로수길점,37.5209263,127.0215176,서울 강남구 강남대로162길 39,"3,087","38,000",4.46
54,54,한성칼국수 논현본점,37.5204250,127.0355282,서울 강남구 언주로148길 14 청호상가빌딩 가동 2층,553,"38,000",4.14
55,55,마일스톤 커피,37.5218476,127.0243525,서울 강남구 논현로159길 49,"1,566","50,000",4.62
56,56,농민백암순대 본점,37.5037000,127.0530139,서울 강남구 선릉로86길 40-4,"2,042","53,000",4.5
57,57,핫쵸,37.5208541,127.0235878,서울 강남구 도산대로15길 32-10 지하 1층,414,"49,000",4.46
58,58,르브런쉭 신사점,37.5219865,127.0210733,서울 강남구 강남대로162길 41-22 오로라빌,647,"15,000",4.34
59,59,위트앤미트 강남점,37.5037803,127.0274523,서울 강남구 강남대로110길 32 1층,436,"47,000",
60,60,클로리스 코엑스몰점,37.5119033,127.0590498,서울 강남구 봉은사로 524 코엑스몰 B1 I109,"2,405","5,000",4.49
61,61,클랩피자 청담점,37.5240873,127.0365596,서울 강남구 압구정로46길 71 1층,"2,475","38,000",4.52
62,62,한추,37.5240032,127.0233572,서울 강남구 논현로175길 68,866,"31,000",4.19
63,63,라브리크 서울,37.5024254,127.0279629,서울 강남구 봉은사로18길 66 라브리크,103,"9,000",
64,64,뉴욕라츠오베이글스,37.5266913,127.0368451,서울 강남구 압구정로48길 28 건물전체,"1,379","38,000",4.54
65,65,가배도 신논현,37.5040370,127.0259473,"서울 강남구 강남대로110길 13 2,3층",762,"22,000",4.41
66,66,이웃집통통이 로데오점,37.5273530,127.0388073,서울 강남구 선릉로161길 19 1층,354,"10,000",4.58
67,67,아베크 청담,37.5258541,127.0392088,서울 강남구 선릉로 823 1층,441,"14,000",4.39
68,68,반룡산,37.5044952,127.0558583,서울 강남구 테헤란로78길 26 1층,812,"17,000",4.3
69,69,무탄,37.5273824,127.0302963,서울 강남구 논현로176길 22 1층,"1,673","61,000",4.36
70,70,울프강 스테이크하우스,37.5244652,127.0414525,서울 강남구 선릉로152길 21,"7,958","49,000",4.5
71,71,우동명가기리야마본진,37.4971270,127.0304175,서울 강남구 강남대로84길 23 한라클래식 지하1층,632,"18,000",4.41
72,72,심퍼티쿠시 가로수길점,37.5176798,127.0205547,서울 강남구 강남대로154길 16 1층 101호,211,"17,000",
73,73,대막,37.5238506,127.0367372,"서울 강남구 압구정로46길 75 , 1층",872,"50,000",4.43
74,74,압구정하루,37.5268197,127.0382274,서울 강남구 언주로172길 56,"2,168","26,000",
75,75,이나세,37.5090271,127.0606206,서울 강남구 테헤란로 521 파르나스몰 지하 1층 F-15호,"1,301","5,000",4.34
76,76,브루클린더버거조인트 가로수길점,37.5191126,127.0240337,서울 강남구 도산대로15길 12 가로수빌딩 1층,"1,822","47,000",4.48
77,77,뱅뱅막국수,37.4897343,127.0328178,"서울 강남구 도곡로 112 서한빌딩, 1층","1,922","18,000",4.69
78,78,메종 드 라 카테고리,37.5255785,127.0402284,서울 강남구 선릉로 826,491,"36,000",4.4
79,79,모센즈스위트 신사점,37.5179722,127.0208991,서울 강남구 강남대로154길 21,48,"2,000",
80,80,신비갈비살본점,37.5190866,127.0201807,서울 강남구 강남대로158길 15 1층,118,"10,000",4.56
81,81,익스퀴진,37.5210769,127.0496916,서울 강남구 삼성로140길 6 라파빌딩,133,"29,000",4.7
82,82,카멜커피,37.5234579,127.0359843,서울 강남구 도산대로45길 16-8,"1,633","40,000",4.43
83,83,뽕나무쟁이 선릉본점,37.5032108,127.0520516,서울 강남구 역삼로65길 31,"1,583","24,000",4.42
84,84,리북집,37.5086129,127.0236560,서울 강남구 학동로2길 45,"1,443","17,000",4.39
85,85,양인환대,37.4855414,127.0353843,서울 강남구 강남대로42길 17,288,"10,000",4.48
86,86,온기정,37.5221788,127.0209209,서울 강남구 압구정로4길 13-9 1층 온기정,"1,381","26,000",4.3
87,87,정돈 강남점,37.5039501,127.0264478,서울 강남구 강남대로110길 19-1 1층,"1,424","26,000",4.56
88,88,길목,37.5190479,127.0565137,서울 강남구 영동대로129길 10,520,"34,000",4.49
89,89,구스아일랜드 브루하우스,37.4934113,127.0320945,서울 강남구 역삼로 118,905,"15,000",4.48
90,90,콴안다오,37.5185095,127.0216147,서울 강남구 강남대로156길 28-2,"1,388","24,000",4.52
91,91,알라보 강남점,37.4999326,127.0323679,서울 강남구 테헤란로 129 강남N타워 1층,"1,617","18,000",4.44
92,92,알아차림,37.5053754,127.0429109,서울 강남구 봉은사로44길 68 1층,38,"1,000",
93,93,칼리프하우스,37.5249656,127.0364917,서울 강남구 도산대로49길 29-8,9,"3,000",
94,94,보슬보슬,37.4974656,127.0316381,서울 강남구 테헤란로8길 22 1층 102호,"5,171","36,000",4.38
95,95,알베르,37.5030220,127.0281051,서울 강남구 강남대로102길 34,"1,818","35,000",4.37
96,96,맥주덕후 피자덕후,37.5261164,127.0379521,서울 강남구 선릉로157길 23 2층 맥주덕후 피자덕후,"1,015","34,000",4.91
97,97,에이비카페 At Bali,37.5029431,127.0278949,서울 강남구 강남대로102길 32,"2,859","27,000",4.44
98,99,번패티번 강남점,37.5027186,127.0274601,서울 강남구 강남대로102길 25,51,500,
99,100,정식당,37.5256529,127.0410861,서울 강남구 선릉로158길 11,"1,433","60,000",
100,101,블루문 탭하우스,37.5044233,127.0425516,서울 강남구 언주로94길 5 1층 블루문탭하우스,177,"2,000",4.61
101,102,에뚜왈,37.5213093,127.0222063,서울 강남구 압구정로10길 35 지하1층,"1,246","38,000",4.49
102,103,BISTROT de YOUNTVILLE,37.5260560,127.0412670,서울 강남구 선릉로158길 13-7 이안빌딩 1층,"2,024","37,000",4.65
103,104,갓덴스시 강남점,37.4987359,127.0290626,서울 강남구 테헤란로 109 강남제일빌딩,"2,177","9,000",4.44
104,105,오아시스 청담점,37.5248213,127.0405303,서울 강남구 도산대로55길 20 영빌딩 1층,"1,327","40,000",
105,106,60년전통신촌황소곱창 강남역직영점,37.5018165,127.0272036,서울 강남구 강남대로100길 13,850,"4,000",4.6
106,107,카이센동 우니도,37.5206882,127.0199227,서울 강남구 압구정로2길 15 1층 카이센동우니도,395,"23,000",4.84
107,108,미엔아이 천등,37.5027772,127.0267132,서울 강남구 봉은사로4길 32 1층,"1,683","12,000",4.71
108,109,뱃고동,37.5268547,127.0379962,서울 강남구 언주로172길 54,"2,239","29,000",4.28
109,110,감성타코 강남역점,37.4989462,127.0276280,서울 강남구 강남대로 406 지하1층 감성타코,"1,739","19,000",4.39
110,111,지아니스나폴리 역삼 본점,37.5026443,127.0375362,서울 강남구 논현로94길 15 B1층,586,"12,000",4.41
111,112,샌드커피 논탄토 신사,37.5209173,127.0239017,서울 강남구 도산대로17길 35 1F,642,"27,000",4.47
112,113,구테로이테,37.5176727,127.0396496,서울 강남구 선릉로131길 16 1층 구테로이테,"1,411","21,000",4.73
113,114,누데이크 하우스 도산,37.5254466,127.0356153,서울 강남구 압구정로46길 50 하우스 도산 B1,"1,259","49,000",
114,115,파파야리프,37.5029711,127.0276060,서울 강남구 강남대로102길 29 번지 2층,670,"10,000",4.5
115,116,용용선생 강남역점,37.5000540,127.0284433,서울 강남구 강남대로96길 17,309,"17,000",4.61
116,117,나이스샤워,37.4976120,127.0329390,서울 강남구 테헤란로10길 25 뜨라네아파트,699,"13,000",4.5
117,118,우마마,37.5220621,127.0412554,서울 강남구 도산대로58길 18 2층,426,"8,000",4.9
118,119,오복수산 도산,37.5240650,127.0385957,서울 강남구 도산대로53길 14 2층 오복수산,865,"21,000",4.44
119,120,삼창교자,37.5188658,127.0217772,서울 강남구 강남대로156길 33 1층,329,"17,000",4.44
120,121,오레노라멘 강남점,37.5004882,127.0280926,서울 강남구 테헤란로1길 28-9 2F,514,"8,000",4.71
121,122,빌즈 강남,37.4997149,127.0349088,서울 강남구 테헤란로 142 아크플레이스 2층,"2,533","16,000",4.38
122,123,앤드트리,37.5243708,127.0374481,서울 강남구 도산대로49길 22 1층,32,400,
123,124,청담돈,37.5236647,127.0371818,서울 강남구 도산대로49길 11 2층 청담돈,"1,308","16,000",4.63
124,125,마녀주방 강남점,37.4994535,127.0281755,서울 강남구 강남대로94길 9,"1,630","12,000",4.45
125,126,오스테리아 꼬또 압구정점,37.5250748,127.0322366,서울 강남구 언주로165길 7-12 오스테리아꼬또 압구정점은 고객님들의 편리한 방문을 위하여 발렛파킹 서비스를 제공하고 있습니다. 주차장에 오셔서 직원에게 문의해 주세요,"1,162","33,000",
126,127,비야게레로,37.5119508,127.0528549,서울 강남구 봉은사로78길 12 101호,430,"26,000",4.23
127,128,플레이버스 바이 바프,37.5190965,127.0209138,서울 강남구 강남대로158길 26 1층 플레이버스 바이 바프,95,"4,000",
128,129,세드라,37.5023210,127.0528969,서울 강남구 역삼로67길 15 101호,507,"20,000",4.57
129,130,고센인코퍼레이티드 청담점,37.5252858,127.0414762,서울 강남구 선릉로158길 18,518,"18,000",4.13
130,131,한올,37.5190285,127.0237826,서울 강남구 도산대로15길 11 2층,64,900,
131,132,단초식당 선릉점,37.5034345,127.0538865,서울 강남구 역삼로69길 27 1층,77,"3,000",4.63
132,133,얼오브샌드위치 압구정로데오점,37.5239240,127.0373577,서울 강남구 도산대로49길 16 한창상가 1층,122,"1,000",
133,134,오리지널팬케이크하우스 도곡점,37.4874808,127.0469896,서울 강남구 남부순환로 2753,845,"8,000",
134,135,파씨오네,37.5254399,127.0367240,서울 강남구 언주로164길 39,"2,667","29,000",4.7
135,136,대가방 본점,37.5212538,127.0385815,서울 강남구 선릉로145길 13 럭스웨이빌딩,778,"23,000",4.28
136,137,녘,37.5027666,127.0267137,서울 강남구 봉은사로4길 32 2층,"1,155","14,000",4.72
137,138,압구정 곱창,37.5270089,127.0356528,서울 강남구 압구정로42길 25-8,148,"15,000",4.61
138,139,모도우 삼성점,37.5100009,127.0578448,서울 강남구 테헤란로87길 35 금강빌딩 B1층,205,800,
139,140,텍사스데브라질 압구정점,37.5253216,127.0288651,서울 강남구 논현로 854 안다즈 호텔 지하 1층,"3,508","12,000",4.33
140,141,대낚식당,37.4945193,127.0344887,서울 강남구 역삼로 137 1층 대낚식당,748,"26,000",4.36
141,142,최가네버섯샤브매운탕칼국수,37.5254749,127.0382082,서울 강남구 도산대로51길 36 2층3층,975,"19,000",4.54
142,143,샤이바나 코엑스점,37.5120527,127.0593545,서울 강남구 영동대로 513 코엑스몰 B1 I108,"1,487","4,000",4.19
143,144,포스톤즈커피로스터스,37.5097712,127.0639116,서울 강남구 테헤란로103길 5 포스톤즈커피로스터스,502,"22,000",
144,145,웨이크앤베이크 청담,37.5257975,127.0346198,서울 강남구 압구정로42길 47,771,"29,000",4.42
145,146,틴틴,37.5035726,127.0261977,서울 강남구 봉은사로2길 19,236,"5,000",
146,147,먼스터샌드,37.5022692,127.0503015,서울 강남구 선릉로 418 1층 2호,71,400,4.5
147,148,포브라더스 도곡점,37.4840320,127.0453012,서울 강남구 논현로28길 40 덕영빌딩,"1,784","9,000",4.41
148,149,호미호식,37.5025319,127.0268863,"서울 강남구 봉은사로4길 36 운현빌딩 1층 2호, 호미호식",377,"14,000",4.92
149,150,아그라 코엑스점,37.5113715,127.0590782,서울 강남구 영동대로 513 (코엑스 지하1층 아이102호),"2,059","5,000",4.36
150,151,버거스올마이티 강남역점,37.5026052,127.0265737,서울 강남구 봉은사로2길 31 1층,623,"9,000",4.74
151,152,BOME CHEONGDAM,37.5243255,127.0426906,서울 강남구 선릉로152길 40 1층,608,"25,000",
152,153,바토스 파르나스몰점,37.5095450,127.0608688,서울 강남구 테헤란로 521 지하 1층 F-25호,922,"2,000",4.36
153,154,알부자,37.5007176,127.0278213,서울 강남구 강남대로98길 14 1층 알부자,"1,724","14,000",4.38
154,155,피그인더가든 강남점,37.4949569,127.0297635,서울 강남구 강남대로 358 1층,"2,610","9,000",4.31
155,156,신사전,37.5186104,127.0226344,서울 강남구 도산대로11길 18 신사전,564,"15,000",4.31
156,157,뮤즈온,37.5203549,127.0237609,서울 강남구 도산대로15길 32 2층,495,"8,000",
157,158,카츠바이콘반,37.5247759,127.0364560,서울 강남구 선릉로153길 36,"1,076","63,000",4.58
158,159,올리버,37.5261699,127.0377307,서울 강남구 선릉로157길 25 2층,62,"3,000",
159,160,무월식탁,37.5025759,127.0273296,서울 강남구 강남대로102길 23,"1,272","16,000",4.28
160,161,토리시오,37.4848866,127.0451577,서울 강남구 논현로30길 43 1층,313,"9,000",4.49
161,162,수다 청담점,37.5247142,127.0412954,서울 강남구 도산대로57길 15,344,"2,000",4.66
162,163,압구정제주집,37.5215590,127.0311174,서울 강남구 논현로152길 36 1층,667,"8,000",4.6
163,164,지아니스나폴리 가로수길점,37.5191976,127.0238132,서울 강남구 도산대로15길 15 2층,366,"9,000",4.35
164,165,듀자미,37.5193446,127.0225353,서울 강남구 도산대로11길 28,"2,242","23,000",4.29
165,166,효계,37.5192182,127.0237865,서울 강남구 도산대로15길 15 1층,293,"23,000",4.53
166,167,상무초밥 강남역점,37.5051327,127.0257425,서울 강남구 봉은사로 111 es타워 1층,"2,002","5,000",4.4
167,168,떡도리탕 강남본점,37.5004221,127.0281131,서울 강남구 테헤란로1길 28-9 1층,767,"14,000",4.46
168,169,어글리스토브 신논현강남역점,37.5008038,127.0282118,서울 강남구 강남대로98길 20,"4,814","13,000",4.34
169,170,부엉이산장 강남점,37.5004962,127.0283031,서울 강남구 테헤란로1길 28-11 1층,36,500,
170,171,무월식탁 파르나스점,37.5090905,127.0606801,서울 강남구 테헤란로 521 파르나스몰 지하1층 F-16,"1,025","3,000",4.38
171,172,허머스키친,37.5094596,127.0610107,서울 강남구 테헤란로 521 파르나스몰 지하 1층 F-26호,"1,741","9,000",4.46
172,173,강남면옥 본점,37.5214830,127.0309466,서울 강남구 논현로152길 34,"1,266","9,000",4.28
173,174,삼원가든,37.5246751,127.0325490,서울 강남구 언주로 835,517,"10,000",
174,175,모던오뎅 가로수길점,37.5193949,127.0249393,서울 강남구 도산대로17길 10 1층 모던오뎅,204,"26,000",4.34
175,176,타우너스 에스프레소 바,37.4984361,127.0398212,서울 강남구 테헤란로28길 41 타우너스 1층,207,"11,000",
176,177,볼트스테이크하우스,37.5250054,127.0449603,서울 강남구 압구정로72길 22,"1,481","30,000",4.26
177,178,시추안하우스 삼성점,37.5096122,127.0580011,서울 강남구 테헤란로87길 29 M타워 1층,970,"10,000",4.39
178,179,휴가,37.5103152,127.0304584,서울 강남구 논현로119길 16 우성빌리지 뒷담길(지도.유나이티드제약찍고오세요),57,"1,000",
179,180,어썸로즈,37.5209255,127.0220256,서울 강남구 압구정로10길 40 지하1층,"3,174","25,000",4.77
180,181,꼭그닭 강남점,37.5024642,127.0270949,서울 강남구 봉은사로4길 37 지하1층,"1,089","7,000",4.44
181,182,도산맘마미아,37.5259310,127.0346732,서울 강남구 압구정로42길 45,"2,135","45,000",4.36
182,183,홍팥집 양재점,37.4868184,127.0356587,서울 강남구 남부순환로359길 31 1층,804,"6,000",4.47
183,184,수다 삼성1호점,37.5111141,127.0573181,서울 강남구 테헤란로87길 53,408,"3,000",4.7
184,185,감성타코 가로수길점,37.5196663,127.0232477,서울 강남구 가로수길 26 3층,891,"17,000",4.42
185,186,정월,37.5036729,127.0286442,서울 강남구 강남대로102길 46 1층,"1,344","28,000",4.46
186,187,어람촌,37.5047910,127.0436010,서울 강남구 언주로98길 22,100,300,4.62
187,188,쉐이크쉑 강남점,37.5028579,127.0257153,서울 강남구 강남대로 452 (역삼동) 1층,"10,898","11,000",4.43
188,189,영천영화 청담점,37.5239502,127.0495268,서울 강남구 도산대로90길 3 상민빌딩,"1,370","31,000",4.36
189,190,안남,37.4870090,127.0520170,서울 강남구 언주로 118 1층 안남,734,"14,000",4.47
190,191,원스타 올드패션드 햄버거,37.4828438,127.0444028,서울 강남구 논현로26길 23,614,"19,000",4.47
191,192,C27 가로수길점,37.5207197,127.0233054,서울 강남구 도산대로15길 39,"1,807","16,000",4.27
192,193,카페드리옹 코엑스점,37.5116648,127.0594201,서울 강남구 영동대로 513 B1층 아이105호,"1,136","2,000",4.62
193,194,케르반 코엑스몰점,37.5113517,127.0589453,서울 강남구 봉은사로 524 코엑스몰 B1 H105,960,"2,000",4.26
194,195,탄탄면공방 파르나스몰점,37.5096142,127.0612772,서울 강남구 테헤란로 521 파르나스타워 지하 1층 탄탄면공방,"1,420","2,000",4.61
195,196,웍셔너리,37.5238983,127.0384938,서울 강남구 도산대로53길 12,685,"36,000",4.28
196,197,로바타 라이브라 카운터,37.5228876,127.0438274,서울 강남구 선릉로148길 52 1층,108,"6,000",4.49
197,198,진도켄 이자카야,37.5188594,127.0238609,서울 강남구 도산대로15길 9 지하 1층,116,"9,000",5
198,199,톡톡,37.5224131,127.0543381,서울 강남구 학동로97길 41 리유빌딩 3층,278,"25,000",4.4
199,200,이대성의진면목 본점,37.5102334,127.0571634,서울 강남구 삼성로100길 23-3 1층,"1,065","5,000",4.59
200,201,롸카두들 내쉬빌 핫치킨 압구정,37.5255995,127.0364531,서울 강남구 언주로164길 35-3 1층,428,"27,000",4.59
201,202,현대순대국,37.5090458,127.0242085,서울 강남구 강남대로124길 20 남경빌딩,453,"4,000",4.39
202,203,어거스트 힐 강남점,37.5033952,127.0276785,서울 강남구 강남대로106길 25,"5,116","28,000",4.56
203,204,오리지널팬케이크하우스 가로수길점,37.5209740,127.0216931,서울 강남구 강남대로162길 41 동원빌딩,"1,201","26,000",4.31
204,205,천진영감,37.5033381,127.0271809,서울 강남구 봉은사로6길 26 1층,462,"14,000",4.45
205,206,PEACH,37.5259096,127.0362140,서울 강남구 언주로168길 32 1층,213,"16,000",4.41
206,207,테라로사 포스코센터점,37.5060634,127.0560829,서울 강남구 테헤란로 440 1층,"4,641","17,000",4.48
207,208,온달집 본점,37.5176355,127.0217244,서울 강남구 강남대로152길 28,492,"19,000",4.44
208,209,마사 타코,37.5219711,127.0217716,서울 강남구 압구정로10길 30-8,417,"11,000",4.42
209,210,제스트,37.5252672,127.0407993,서울 강남구 도산대로55길 26 하늘빌딩 1층,114,"7,000",4.74
210,211,패티앤베지스,37.5220005,127.0202215,서울 강남구 압구정로4길 11 1층,"1,110","32,000",4.46
211,212,은행골 신사점,37.5180268,127.0227470,서울 강남구 강남대로152길 42 2층,"1,766","16,000",
212,213,나이쏘이 강남점,37.5019284,127.0267220,서울 강남구 강남대로102길 11 2층,530,"3,000",4.25
213,214,파넬,37.5253440,127.0346009,서울 강남구 언주로164길 14,906,"17,000",4.17
214,215,이치서울,37.5192540,127.0205514,서울 강남구 강남대로158길 21 2층,210,"18,000",4.37
215,216,치즈룸 안다즈,37.5253216,127.0288651,서울 강남구 논현로 854 안다즈호텔 지하 1층 112호,"5,642","24,000",4.58
216,217,쿠라우니,37.5189972,127.0221056,서울 강남구 강남대로156길 39,873,"22,000",4.44
217,218,봉밀가 강남구청점,37.5159822,127.0424028,서울 강남구 선릉로 664 건설빌딩,707,"20,000",4.51
218,219,신동궁감자탕 선릉직영점,37.5040863,127.0529113,서울 강남구 선릉로86길 39,"1,531","14,000",4.4
219,220,비파티세리,37.5220169,127.0232793,서울 강남구 압구정로14길 36 인자빌딩 1-4층 비파티세리,"1,759","25,000",4.44
220,221,돝고기506,37.4982664,127.0362225,서울 강남구 역삼로17길 53,429,"31,000",4.42
221,222,마담밍,37.5034924,127.0501910,서울 강남구 선릉로86길 5-4 1층,889,"13,000",4.47
222,223,올드페리도넛 가로수길점,37.5204150,127.0212986,"서울 강남구 강남대로160길 35-5 지하1층 1층, 2층",42,400,
223,224,길버트버거앤프라이즈,37.5212434,127.0231998,서울 강남구 도산대로15길 47,544,"14,000",4.49
224,225,덕후선생,37.5252765,127.0401979,서울 강남구 선릉로 822 5F,464,"25,000",4.25
225,226,일일향 압구정1호점,37.5234628,127.0306405,서울 강남구 논현로168길 30,924,"9,000",4.32
226,227,카페마마스 코엑스점,37.5130928,127.0598122,서울 강남구 영동대로 517 P105호,"3,040","2,000",4.36
227,228,SADDLER HAUS,37.5193887,127.0249425,서울 강남구 도산대로17길 10 B1 새들러하우스,"5,042","83,000",4.55
228,229,아트몬스터 강남역점,37.5004671,127.0276330,서울 강남구 테헤란로1길 28-3,"1,234","17,000",4.55
229,230,모스가든,37.5166946,127.0283515,서울 강남구 논현로139길 12,410,"20,000",
230,231,피양옥,37.5194171,127.0483793,서울 강남구 삼성로133길 14,594,"17,000",4.3
231,232,강남진해장,37.4995538,127.0292442,서울 강남구 테헤란로5길 11,"1,208","11,000",4.33
232,233,피양콩할마니,37.5041000,127.0552500,서울 강남구 삼성로81길 30,"1,487","32,000",4.19
233,234,달링키친,37.5140114,127.0375745,서울 강남구 언주로126길 25,"1,916","15,000",4.43
234,235,썬더버드 청담점,37.5262239,127.0417037,서울 강남구 압구정로60길 18,"1,186","17,000",
235,236,에그슬럿 코엑스점,37.5093958,127.0617786,서울 강남구 영동대로 513 (삼성동) 지하1층 101호,"5,773","9,000",4.17
236,237,플랜튜드,37.5116621,127.0594275,서울 강남구 영동대로 513 스타필드 지하1층 I-111호,161,"2,000",
237,238,블루보틀 역삼 카페,37.4999191,127.0323765,서울 강남구 테헤란로 129 강남N타워 G층,"1,230","8,000",4.41
238,239,보노보노 삼성점,37.5069045,127.0582101,서울 강남구 테헤란로 508 해성2빌딩 지하1층,"6,750","5,000",4.45
239,240,젠제로,37.5153115,127.0432696,서울 강남구 선릉로126길 14 예우빌딩 1층,"2,231","42,000",4.62
240,241,무월,37.5034158,127.0266386,서울 강남구 봉은사로4길 21,"1,106","15,000",4.36
241,242,이디야커피랩,37.5104275,127.0328569,서울 강남구 논현로 636 이디야빌딩,"4,249","11,000",4.46
242,243,비코드라운지,37.5263763,127.0386481,서울 강남구 선릉로157길 14-3 1층,63,"1,000",4.36
243,244,아방베이커리 역삼점,37.4951941,127.0393206,"서울 강남구 논현로 337 스톤엘리시온 1층, 2층",183,"2,000",
244,245,도치피자 강남점,37.5010070,127.0288910,서울 강남구 강남대로98길 27 1층,641,"20,000",4.38
245,246,칙피스 신사점,37.5191100,127.0248065,서울 강남구 강남대로152길 69,"1,996","29,000",4.49
246,248,호무랑,37.5232173,127.0444714,서울 강남구 도산대로 442 피엔폴루스,576,"21,000",4.43
247,249,카페 노티드 삼성,37.5100993,127.0640471,서울 강남구 테헤란로103길 9 1층,"8,947","20,000",4.5
248,250,뜨락,37.5244498,127.0555680,서울 강남구 영동대로142길 13-3,445,"28,000",4.45
249,251,크라이치즈버거 삼성역점,37.5090856,127.0651856,서울 강남구 테헤란로 616 미래에셋벤처타워 B1층,"3,242","15,000",4.54
250,252,아우어베이커리 도산본점,37.5235686,127.0368457,서울 강남구 도산대로45길 10-11 JYC2빌딩,"4,085","29,000",4.45
251,253,MUOKI,37.5190071,127.0422472,서울 강남구 학동로55길 12-12 2층 무오키,"1,027","21,000",4.8
252,254,수라선,37.5046689,127.0414660,서울 강남구 언주로 517 신라스테이호텔 역삼 1층 대로변,"1,076","10,000",4.28
253,255,온리고,37.5218887,127.0316728,서울 강남구 언주로151길 20 웅빌딩 1층 101호,940,"18,000",4.71
254,256,고트델리 압구정,37.5273184,127.0390464,서울 강남구 선릉로161길 17,653,"31,000",4.62
255,257,글로브 비스트로,37.5091639,127.0615087,서울 강남구 테헤란로 521 파르나스타워 지하1층,971,"6,000",4.33
256,258,드코닝 코엑스몰점,37.5100146,127.0616181,서울 강남구 영동대로 513 코엑스몰 B1F C103호,"1,589","2,000",4.38
257,259,피그인더가든 코엑스점,37.5096451,127.0595339,서울 강남구 테헤란로87길 22 (삼성동) 도심공항터미널 1층 R005호,"2,109","4,000",4.36
258,260,브루클린더버거조인트 삼성점,37.5126401,127.0556087,서울 강남구 봉은사로84길 10,773,"8,000",4.42
259,261,호호식당 도산공원,37.5249701,127.0366636,서울 강남구 도산대로49길 29-6,"1,401","12,000",4.69
260,262,쵸이닷,37.5244174,127.0465576,서울 강남구 도산대로 457,458,"14,000",4.45
261,263,골드피쉬 딤섬퀴진,37.5260703,127.0371075,서울 강남구 압구정로48길 35 투구빌딩 2층,522,"20,000",4.55
262,264,르사이공 코엑스몰점,37.5112687,127.0589319,서울 강남구 봉은사로 524 코엑스몰 B1 H104,"1,560","1,000",4.39
263,265,로마옥,37.4869037,127.0341261,서울 강남구 강남대로48길 11,"2,240","19,000",4.56
264,266,커먼위켄드,37.5028634,127.0274103,서울 강남구 봉은사로6길 34 스타제이빌딩 1층 커먼위켄드,188,"6,000",
265,267,인터컨티넨탈 서울 코엑스 브래서리,37.5129728,127.0572474,서울 강남구 봉은사로 524 인터컨티넨탈 서울 코엑스 1층,"1,490","2,000",4.62
266,268,폴리스 파르나스몰점,37.5095450,127.0608688,서울 강남구 테헤란로 521 f-13호,"1,260","3,000",4.37
267,269,농민백암순대,37.4949190,127.0315310,서울 강남구 역삼로3길 20-4,"1,610","13,000",4.52
268,270,디슬로우,37.5263924,127.0409955,서울 강남구 선릉로160길 7 지층,297,"10,000",4.87
269,271,키마스시 청담,37.5240378,127.0380682,서울 강남구 도산대로51길 14 2층,93,"5,000",
270,272,키친마이야르,37.5266091,127.0354220,서울 강남구 언주로170길 22 지하1층,346,"21,000",
271,273,영동그집,37.5074660,127.0244451,서울 강남구 봉은사로1길 42-8,282,"6,000",4.71
272,274,라팰리스 청담,37.5240643,127.0409428,"서울 강남구 선릉로152길 18 1층, 2층",77,900,
273,275,맛짱조개,37.5171749,127.0363749,서울 강남구 언주로136길 10,567,"23,000",4.5
274,276,완미족발 논현본점,37.5066405,127.0251381,서울 강남구 강남대로118길 20 지상1층,633,"3,000",4.91
275,277,수서역 벌교한상,37.4858711,127.0993781,서울 강남구 광평로46길 7 벌교한상,774,"8,000",4.34
276,278,빌리언스 서울,37.5178143,127.0293169,서울 강남구 논현로 736 지하 2층,43,300,4.92
277,279,블루보틀 압구정 카페,37.5257242,127.0287719,"서울 강남구 논현로 854 101호, 201호",654,"7,000",
278,280,새벽집 청담동점,37.5256081,127.0527724,서울 강남구 도산대로101길 6,"1,814","19,000",4.21
279,281,다님길,37.5091123,127.0236440,서울 강남구 강남대로124길 11 102호,63,500,
280,282,능라도 강남점,37.5095440,127.0555224,서울 강남구 삼성로 534 싹아트센터 1층,724,"16,000",4.28
281,283,라그릴리아 SPC스퀘어점,37.4942767,127.0297786,서울 강남구 강남대로 352 SPC스퀘어 3층,"1,215","8,000",
282,284,스폰티니 강남점,37.5020533,127.0260125,서울 강남구 강남대로 442 1층,"1,999","21,000",4.37
283,285,로흐,37.5008565,127.0320046,서울 강남구 테헤란로13길 17 1층 로흐,203,"7,000",4.79
284,286,두껍삼 역삼직영점,37.4979056,127.0320497,서울 강남구 테헤란로8길 17,"1,506","3,000",
285,287,기와집 능이백숙삼계탕 해천탕 강남직영점,37.5179818,127.0399745,서울 강남구 선릉로131길 12 1층,212,100,
286,288,트라가,37.5034863,127.0348248,서울 강남구 테헤란로25길 46,"1,182","7,000",4.69
287,289,미도인 강남,37.5021187,127.0271668,서울 강남구 강남대로102길 16 지상 2층,"1,782","25,000",4.41
288,290,소진담 신사점,37.5224955,127.0242235,"서울 강남구 논현로161길 51 B1, 1F","2,702","23,000",4.49
289,291,카메스시,37.5138985,127.0417967,서울 강남구 선릉로121길 7,"1,863","15,000",4.79
290,292,야사이마끼 쿠이신보,37.5187256,127.0242548,서울 강남구 강남대로152길 62 1층 야사이마끼 쿠이신보,220,"16,000",4.45
291,293,청수횟집,37.5013011,127.0349667,서울 강남구 테헤란로25길 9,119,"3,000",4.28
292,294,센트레,37.5233419,127.0371013,서울 강남구 도산대로49길 9 스타크빌딩 1층 센트레청담,84,"2,000",
293,295,압구정면옥,37.5264669,127.0291533,서울 강남구 압구정로30길 16,584,"4,000",4.26
294,296,스시츠바사,37.5190444,127.0217519,서울 강남구 강남대로156길 31-4 1층,232,"10,000",4.42
295,297,매우매오 강남역별관,37.5035347,127.0265892,서울 강남구 봉은사로4길 19 1층 매우매오 강남역별관,"1,059","3,000",4.45
296,298,에이치피 서울,37.5028577,127.0273753,서울 강남구 봉은사로6길 34 지상 2층 hpseoul,190,"3,000",4.87
297,299,식스나잇,37.5284781,127.0350431,서울 강남구 언주로174길 13 지하1층,6,800,
298,0,우양우,37.5358707,127.1274610,서울 강동구 천호옛14길 36 1층 우양우,179,"7,000",4.66
299,1,갓잇 올림픽공원점,37.5250791,127.1295973,서울 강동구 성안로 14,"1,284","10,000",4.5
300,2,안녕식당,37.5398626,127.1282124,서울 강동구 천호대로159길 53,"1,403","10,000",4.39
301,3,고모네원조콩탕황태탕,37.5296513,127.1359917,서울 강동구 풍성로57길 13,739,"6,000",4.45
302,4,최냉면 본점,37.5327592,127.1249986,서울 강동구 천호옛8길 34,548,"9,000",4.45
303,5,시집그릴하우스,37.5364109,127.1265996,"서울 강동구 천호대로158길 15-8 1층, 지층",582,"6,000",4.57
304,6,풀팬,37.5401581,127.1245402,서울 강동구 올림픽로 660 엘크루 상가 104호,589,"4,000",4.43
305,7,풍년상회,37.5363785,127.1269204,서울 강동구 천호옛14길 23-6,"1,134","13,000",4.55
306,8,꿀꿀진순대 강동본점,37.5339962,127.1340449,서울 강동구 양재대로103길 70 1층 101호 102호,"1,888","3,000",4.8
307,9,브랜뉴하이몬드,37.5363003,127.1261209,"서울 강동구 천호옛14길 11 브랜뉴하이몬드 1, 2층","5,187","7,000",4.44
308,10,연희네 돈까스&모밀,37.5387225,127.1410808,서울 강동구 양재대로116길 9 1층,225,"1,000",4.24
309,11,스윗솔트,37.5454883,127.1541474,서울 강동구 상암로 286,"6,200","9,000",4.5
310,12,어흥,37.5447643,127.1434678,서울 강동구 양재대로128길 14 2층,192,"4,000",4.89
311,13,YUP,37.5256196,127.1298829,서울 강동구 성안로 22 세현빌딩 1층 yup,291,"4,000",4.66
312,14,말뚝곱창 천호점,37.5423198,127.1205007,서울 강동구 구천면로 140 스타시티빌딩 8층,122,"2,000",4.57
313,15,온전히,37.5339918,127.1361672,서울 강동구 천호대로176길 10 1층,429,"7,000",4.46
314,16,이심전심,37.5387313,127.1305915,서울 강동구 진황도로 32,196,"1,000",4.98
315,17,송월냉면,37.5423911,127.1295390,서울 강동구 구천면로29길 26 송월냉면,"1,164","4,000",4.41
316,18,굽낭,37.5449446,127.1436043,서울 강동구 양재대로128길 13 1층,41,100,
317,19,한주,37.5363112,127.1365296,서울 강동구 진황도로 87 1층,106,"1,000",4.78
318,20,멘야세븐,37.5364067,127.1423511,서울 강동구 양재대로112길 45,692,"8,000",4.46
319,21,차이나린찐,37.5233552,127.1304577,서울 강동구 강동대로 217,"1,562","5,000",4.17
320,22,송하정스시,37.5506618,127.1722668,서울 강동구 상일로 39-8,"1,002","8,000",4.78
321,23,아카루이,37.5394410,127.1254338,서울 강동구 올림픽로70길 31 지하1층,107,"2,000",4.71
322,24,스시공간,37.5392744,127.1267405,서울 강동구 올림픽로70길 51-2 1층,"1,469","8,000",4.88
323,25,로니로티 천호점,37.5381231,127.1263862,서울 강동구 천호대로 1027 동원천호빌딩 2층,"2,373","3,000",4.48
324,26,우드멜로우,37.5630641,127.1551201,서울 강동구 아리수로 243,846,"7,000",4.36
325,27,버섯잔치집 본점,37.5283243,127.1257118,서울 강동구 성내로 52 성원빌딩(네비는 버섯잔치집),"6,350","6,000",4.85
326,28,다람,37.5246030,127.1329286,서울 강동구 양재대로85길 29,409,"17,000",4.41
327,29,김수환식당,37.5282415,127.1230992,서울 강동구 성안로3길 127,425,"1,000",4.44
328,30,대가돈가츠,37.5397943,127.1280814,서울 강동구 진황도로 4-7,290,"3,000",4.61
329,31,돈사돈 강동직영점,37.5418358,127.1242832,서울 강동구 올림픽로 675 1층 돈사돈,192,800,4.5
330,32,생어거스틴 성내점,37.5280716,127.1201572,"서울 강동구 강동대로 143-64 스퀘어100 , 1층","3,289","18,000",4.56
331,33,해임시,37.5388549,127.1275552,서울 강동구 천호대로157길 26 4층,45,400,
332,34,몽땅족발,37.5401711,127.1251813,서울 강동구 구천면로24길 20-16 몽땅족발,641,"1,000",4.51
333,35,미드데이썬,37.5262601,127.1315860,서울 강동구 양재대로91나길 55,223,"10,000",4.58
334,36,꼼떼 바베큐 둔촌본점,37.5329191,127.1496676,서울 강동구 동남로51길 9,"1,128","4,000",4.27
335,37,퍼플,37.5396243,127.1281066,서울 강동구 천호대로159길 47 1층,22,100,
336,38,긴자 올림픽점,37.5231290,127.1312060,서울 강동구 강동대로 223,580,"2,000",4.22
337,39,강동반상,37.5498047,127.1753543,서울 강동구 상일로6길 39,798,"2,000",
338,40,카페헤엄,37.5441079,127.1421272,서울 강동구 양재대로 1549 삼정빌딩 헤엄,131,400,4.78
339,41,등갈비달인 본점,37.5362863,127.1263331,서울 강동구 천호대로158길 25 1층,586,"4,000",4.53
340,42,평상시,37.5535766,127.1336374,서울 강동구 고덕로20길 26 1층,321,"7,000",4.43
341,43,블랑제리11-17,37.5370559,127.1232685,서울 강동구 올림픽로 624 1층,"1,898","5,000",4.42
342,44,담금,37.5253309,127.1284519,서울 강동구 성내로18길 37,110,"6,000",
343,45,아이아오,37.5356354,127.1292404,서울 강동구 천호대로168가길 57 1층,91,"3,000",4.7
344,46,솔리,37.5398319,127.1281122,서울 강동구 진황도로 4-5 카페 solely,214,"1,000",4.5
345,47,하다식당,37.5324715,127.1239929,서울 강동구 풍성로 105 1층,415,"3,000",4.59
346,48,스시야미 천호점,37.5396844,127.1280752,서울 강동구 진황도로 4-9 스시야미,725,"2,000",4.38
347,49,슈가하이,37.5330849,127.1323307,서울 강동구 천호대로170길 56 1층,78,"1,000",5
348,50,함흥본가면옥,37.5333332,127.1387199,서울 강동구 양재대로 1428 성림빌딩,"1,428","2,000",4.36
349,51,쭈꾸미도사 천호본점,37.5370711,127.1264600,서울 강동구 천호대로158길 9 1층,"1,619","4,000",4.44
350,52,미분당 길동점,37.5368758,127.1405360,서울 강동구 양재대로112길 13 1층 103호,423,"1,000",4.78
351,53,핫떡,37.5501858,127.1285888,서울 강동구 상암로11길 11 강동리시온,662,300,4.17
352,54,달꽃다방 천호점,37.5374530,127.1320150,서울 강동구 천호대로 1077 상가동 102동 104호,109,~100,
353,55,아키노유키 천호점,37.5388982,127.1265292,서울 강동구 올림픽로70길 50-7,553,"4,000",4.39
354,56,라라브레드 길동점,37.5386285,127.1411752,서울 강동구 양재대로116길 13,"1,726","2,000",4.44
355,57,앙상블,37.5521739,127.1437240,서울 강동구 양재대로147길 5 2층,603,"3,000",4.64
356,58,반달식당,37.5444897,127.1448685,서울 강동구 양재대로128길 40 1층,64,~100,
357,59,채스우드커피,37.5274481,127.1307085,서울 강동구 성안로 42 1층,376,"4,000",4.52
358,60,스테이지28,37.5658111,127.1470141,서울 강동구 아리수로61길 105 카페,765,"10,000",4.29
359,61,오륜정,37.5286109,127.1222887,서울 강동구 성내로6길 32 1층,579,"1,000",4.37
360,62,카페공공장소,37.5510328,127.1304771,서울 강동구 암사길 7-1 1층 카페공공장소,199,"1,000",4.83
361,63,알라보 올림픽공원점,37.5249692,127.1294751,서울 강동구 성안로 12 1층 M빌딩,823,"3,000",4.63
362,64,33Acre,37.5631634,127.1498548,서울 강동구 아리수로61길 33,228,"7,000",
363,65,똥찌비 천호점,37.5386799,127.1278338,서울 강동구 천호대로159길 25,145,"1,000",4.6
364,66,이태리 다락방,37.5398790,127.1281955,"서울 강동구 천호대로159길 53 1층, 2층",23,~100,
365,67,인정원월남쌈,37.5332845,127.1401909,서울 강동구 천호대로 1158,911,"8,000",4.11
366,68,아웃백스테이크하우스 천호점,37.5401782,127.1244665,서울 강동구 올림픽로 660,"5,087",600,4.46
367,69,사시미 천호점,37.5390140,127.1262374,서울 강동구 천호대로155길 22,274,"4,000",4.31
368,70,얌얌카츠,37.5360737,127.1267163,서울 강동구 천호옛14길 22 1층,420,"5,000",4.65
369,71,대팔이네,37.5398292,127.1254797,서울 강동구 구천면로24길 20-9 1층,271,"1,000",4.86
370,72,족발선생,37.5393584,127.1267560,서울 강동구 올림픽로70길 51-6,413,"1,000",4.5
371,73,미츠커피앤바,37.5481538,127.1731300,서울 강동구 상일로 11 Meetscoffe&bar,98,700,
372,74,시찌린,37.5519955,127.1557698,서울 강동구 동남로 877 환화오벨리스크 2층,590,"1,000",4.43
373,75,푸른목장,37.5373332,127.1341185,서울 강동구 진황도로 65,495,600,4.5
374,76,쿡희희,37.5584152,127.1705248,서울 강동구 상일로15길 34-30 1층 103호 쿡희희,100,100,
375,77,더식당,37.5387698,127.1275492,서울 강동구 천호대로157길 24 2층,"3,026","3,000",4.75
376,78,유은자진참숯과닭발 본점,37.5488449,127.1718510,서울 강동구 상일로5길 23,151,"4,000",4.35
377,79,서울감자탕,37.5346716,127.1352138,서울 강동구 천호대로 1116 101호,841,500,4.21
378,80,황도바지락칼국수,37.5368500,127.1501499,서울 강동구 천호대로 1256,"1,336","1,000",4.31
379,81,WAAAH,37.5236572,127.1310991,서울 강동구 양재대로81길 61 올림픽파크플러스 105호,284,"5,000",4.72
380,82,시오미스시,37.5552227,127.1365810,서울 강동구 고덕로25길 12,90,"2,000",4.71
381,83,카페제이,37.5606502,127.1580270,서울 강동구 동남로82길 19,206,"1,000",4.63
382,84,파트원나이스,37.5476303,127.1246529,서울 강동구 올림픽로89길 29,93,"9,000",4.66
383,85,푸지미곱창,37.5362020,127.1267368,서울 강동구 천호옛14길 23,866,"13,000",4.46
384,86,스시정원,37.5580231,127.1704085,서울 강동구 고덕로 399 메가스퀘어 상가 103동 2층 237호,445,300,4.35
385,87,마데린커피,37.5395356,127.1246170,서울 강동구 올림픽로 654-15 1층,399,"3,000",4.4
386,88,신사소곱창 천호점,37.5390996,127.1262137,서울 강동구 천호대로155길 24,378,900,4.35
387,89,온도계,37.5367177,127.1264377,서울 강동구 천호대로158길 15,274,"3,000",
388,90,화진포막국수 강동구청점,37.5284776,127.1246146,서울 강동구 성내로10길 12 1층,672,"5,000",4.37
389,91,수라연,37.5279569,127.1202320,서울 강동구 강동대로 143-64 범무빌딩 2층,636,"2,000",4.18
390,92,개나리아구찜 강동점,37.5501389,127.1374570,서울 강동구 구천면로 349 102호,95,100,
391,93,연풍민락,37.5385014,127.1275006,서울 강동구 천호대로157길 18 2층 연풍민락,"1,067","2,000",4.68
392,94,강동호치민,37.5365691,127.1330992,서울 강동구 천호대로 1089 복합시설동 1층 비47호 신동아파밀리에,671,"1,000",4.34
393,95,잇다,37.5332576,127.1399146,"서울 강동구 천호대로 1156-5 1층, B1층",249,800,4.5
394,96,양도령숯불민물장어 본점,37.5416517,127.1411789,서울 강동구 양재대로 1521,993,"1,000",4.55
395,97,초밥의 신 부타,37.5385910,127.1260262,서울 강동구 천호대로155길 11 1층,732,"3,000",4.48
396,98,라그릴리아 천호점,37.5388506,127.1244645,서울 강동구 천호대로 1005 (천호동) 현대백화점 1층,"1,534",800,4.49
397,99,데카망,37.5359883,127.1274760,서울 강동구 천호옛14길 35 101호,462,"4,000",4.58
398,100,상무초밥 길동점,37.5344639,127.1380496,서울 강동구 천호대로 1139 1층,"1,097",800,
399,101,히든브라운,37.5298758,127.1285773,서울 강동구 성안로9길 50 둘리빌딩 1층 101호,186,"8,000",4.58
400,102,간다이 본점,37.5394836,127.1268601,서울 강동구 올림픽로70길 61 101호,197,800,4.41
401,103,광연수산 영어조합법인,37.5769556,127.1707275,서울 강동구 가래여울2길 33,528,"1,000",4.32
402,104,까페항상,37.5306768,127.1220262,서울 강동구 성내로3길 5 까페항상,514,"1,000",4.53
403,105,선남sea,37.5503694,127.1264427,서울 강동구 상암로 26 선사타워빌딩 1층,461,600,4.38
404,106,탕의신홍대포 명일점,37.5487493,127.1434073,서울 강동구 양재대로 1603,208,100,4.49
405,107,해중천반점,37.5362249,127.1258163,서울 강동구 천호옛길 84 해중천반점,553,"2,000",4.31
406,108,보타이,37.5327209,127.1221856,서울 강동구 풍성로 90 한스빌딩 1층,343,"2,000",4.47
407,109,Elephant Coffee,37.5342631,127.1438239,서울 강동구 천호대로 1192 부토빌딩,293,"1,000",4.42
408,110,안나보아트카페,37.5384661,127.1456368,서울 강동구 명일로17길 9 1층 안나보아트카페,334,"1,000",4.83
409,111,봉메밀,37.5384954,127.1519559,서울 강동구 천호대로203길 10,934,700,4.41
410,113,분홍다이닝,37.5385014,127.1275006,서울 강동구 천호대로157길 18 원방빌딩,"1,661","6,000",4.51
411,114,팔월팔일,37.5399019,127.1284210,서울 강동구 진황도로 10,159,900,4.56
412,115,풍촌코다리네 본점,37.5493548,127.1270548,서울 강동구 올림픽로 763 대명빌딩 1층 풍촌코다리네 본점,"1,290",400,4.43
413,116,커피몽타주,37.5295051,127.1218766,서울 강동구 올림픽로48길 23-12 1층,"1,623","9,000",4.67
414,117,1984그수육집칼국수 성내직영점,37.5248700,127.1288771,서울 강동구 성안로 9 1층 1984그수육집칼국수,109,200,
415,118,샘밭막국수,37.5223417,127.1327625,서울 강동구 강동대로 241 세기빌딩,527,"2,000",4.24
416,119,지호한방삼계탕 암사점,37.5537083,127.1286000,서울 강동구 올림픽로 813,722,100,4.36
417,120,아우어룸,37.5351349,127.1419105,서울 강동구 양재대로110길 47 1층,132,"3,000",
418,121,숙성명가 함흥냉면 본점,37.5359722,127.1391186,서울 강동구 양재대로 1457 부에노빌딩 1층,529,"1,000",4.59
419,122,8번가,37.5384711,127.1274476,서울 강동구 천호대로157길 18 원방빌딩 3층,518,"1,000",4.54
420,123,마시쓰커피,37.5405052,127.1232010,서울 강동구 천호대로151길 31 1층,91,400,
421,124,틈새라면 천호점,37.5380900,127.1270066,서울 강동구 천호대로157길 6,641,600,4.51
422,125,반피셋,37.5394863,127.1409638,서울 강동구 양재대로 1500 105호,171,900,
423,126,쿠우쿠우 천호점,37.5385340,127.1274808,서울 강동구 천호대로157길 18 2층,615,400,4.35
424,127,개수리막국수 암사점,37.5490627,127.1268555,서울 강동구 올림픽로 759,347,"1,000",4.3
425,128,구삼부대찌개,37.5233908,127.1317963,서울 강동구 강동대로53길 12,413,"6,000",4.31
426,129,이차돌 강동구청점,37.5293011,127.1227672,서울 강동구 성내로6길 14,592,200,4.4
427,130,하윌라,37.5272471,127.1302618,서울 강동구 성안로 37 2층,212,"1,000",
428,131,다락방초밥집,37.5373175,127.1405367,서울 강동구 진황도로47길 59 1층,183,700,4.69
429,132,소소로운,37.5547469,127.1546612,서울 강동구 고덕로 262 1층 114호,251,600,4.57
430,133,함경면옥 본점,37.5235769,127.1300329,서울 강동구 강동대로 215 삼안빌딩,"1,636","1,000",4.33
431,134,와고참숯갈비,37.5395331,127.1263209,서울 강동구 올림픽로70길 47-7 와고참숯갈비,355,"1,000",4.78
432,135,꾸러기분식,37.5508517,127.1420527,서울 강동구 구천면로 389-1 꾸러기분식,314,"1,000",4.31
433,136,천호누룽지통닭구이 성내점,37.5360233,127.1274324,서울 강동구 천호옛14길 35,310,"2,000",4.48
434,137,이차전,37.5391750,127.1279618,서울 강동구 천호대로159길 35,126,500,4.23
435,138,열테이블,37.5337925,127.1329100,서울 강동구 천호대로170길 35 1층,168,"1,000",4.53
436,139,이한진숙성회,37.5426313,127.1311643,서울 강동구 구천면로 247-1,10,"18,000",
437,140,카페씨모,37.5514735,127.1426942,서울 강동구 고덕로38길 69,686,"1,000",4.56
438,141,히모,37.5492981,127.1258531,서울 강동구 올림픽로91길 30 힐스테이트암사 상가1층 127호,117,700,4.71
439,142,스시마에,37.5289418,127.1245853,서울 강동구 성내로 40 동흔빌딩 1층,106,"2,000",4.29
440,143,유타로 천호,37.5388213,127.1266343,서울 강동구 올림픽로70길 56-6,203,"1,000",4.27
441,144,육대쌈 암사점,37.5545085,127.1368886,서울 강동구 고덕로 104,"1,213","3,000",4.53
442,145,이상한나라의제과점,37.5303704,127.1381761,서울 강동구 풍성로61길 40 1층,46,100,4.83
443,146,세광양대창 천호점,37.5372860,127.1267609,서울 강동구 천호대로 1034,275,500,4.52
444,147,고야,37.5376119,127.1410662,"서울 강동구 양재대로114길 20 1층 104, 105호",79,400,4.87
445,148,토속한방삼계탕,37.5335102,127.1392330,서울 강동구 천호대로 1152 1층 토속한방삼계탕,556,300,4.27
446,149,고기감성,37.5395371,127.1280881,서울 강동구 천호대로159길 45 1층,257,800,4.94
447,150,진정한족발 본점,37.5361005,127.1261201,서울 강동구 천호옛14길 10 101호 진정한족발,252,200,4.49
448,151,BOON THE BURGER,37.5356290,127.1291353,서울 강동구 천호대로168가길 57 102호,293,"3,000",4.62
449,152,명일원조닭발,37.5503101,127.1446509,서울 강동구 상암로47길 86,902,"1,000",4.37
450,153,얼로브케이크,37.5353937,127.1401967,서울 강동구 양재대로110길 18 102호 얼로브케이크,34,~100,
451,154,연우식당,37.5451542,127.1244249,서울 강동구 올림픽로83길 22 1층 연우식당,210,900,4.69
452,155,카페63도,37.5364733,127.1330729,서울 강동구 천호대로 1089 신동아파밀리에 상가 지하 1층 B103호 카페63도,119,100,
453,156,cafe쿰베오,37.5427031,127.1482376,서울 강동구 명일로26길 12 1층,341,"3,000",4.82
454,157,월요일,37.5363075,127.1238192,서울 강동구 올림픽로62길 18 1층,163,"1,000",4.42
455,158,지리산왕재봉흑돼지,37.5505362,127.1263666,서울 강동구 상암로 26 선사타워빌딩,791,"2,000",4.39
456,159,레드문,37.5389332,127.1260701,서울 강동구 천호대로155길 19 1층,87,"1,000",4.64
457,160,마드레,37.5371390,127.1525500,서울 강동구 동남로 710,668,"1,000",4.39
458,161,봉래면옥,37.5365271,127.1467035,서울 강동구 명일로 200-16,277,"2,000",4.39
459,162,통로,37.5234428,127.1329954,서울 강동구 강동대로55길 25 1층 101호,216,"3,000",4.48
460,163,시간을담다베이커리,37.5325486,127.1469423,서울 강동구 동남로49길 54 지하 1층,148,"1,000",4.62
461,164,신가네해물닭갈비,37.5396291,127.1257212,서울 강동구 구천면로24길 26,502,400,4.34
462,165,소풍가는날,37.5566264,127.1687801,서울 강동구 고덕로 390,327,500,4.27
463,166,무공돈까스 길동역점,37.5371331,127.1395461,서울 강동구 양재대로 1471 1층 105호,836,500,4.35
464,167,바람,37.5354641,127.1302959,서울 강동구 천호대로168가길 38 1층 101호,91,"1,000",4.61
465,168,그레인 제빵소,37.5376843,127.1406867,서울 강동구 진황도로47길 67,"1,177","1,000",4.41
466,169,고덕빵집,37.5534127,127.1684718,서울 강동구 상일로 55,356,100,4.41
467,170,리틀방콕 고덕점,37.5599366,127.1550927,서울 강동구 동남로79길 26 고덕아이파크 상가 1층,497,800,4.52
468,171,이토야,37.5492126,127.1264395,서울 강동구 올림픽로93길 9,314,"3,000",4.55
469,172,크리츠버거 강동역점,37.5353635,127.1350233,서울 강동구 천호대로 1111 정우빌딩 1층,160,~100,
470,173,마포집,37.5361011,127.1263853,서울 강동구 천호옛14길 16,496,"1,000",4.38
471,174,우리동네막국수국밥,37.5500032,127.1265538,서울 강동구 상암로4길 9 1층,468,700,4.59
472,175,캄포,37.5445706,127.1450555,서울 강동구 양재대로128길 41 1층 캄포,66,"3,000",4.91
473,176,경양미식,37.5362396,127.1269619,서울 강동구 천호옛14길 23-4,258,"19,000",4.57
474,177,월가,37.5400356,127.1287668,서울 강동구 진황도로 9 2층 월가,181,700,4.65
475,178,에이컷스테이크 올림픽공원점,37.5249180,127.1274315,서울 강동구 강동대로 187 파크뷰캐슬 2층,747,"1,000",4.41
476,179,고추장구이,37.5479755,127.1322864,서울 강동구 상암로 86,251,"2,000",4.65
477,180,길조,37.5342323,127.1416402,서울 강동구 천호대로 1173,583,"1,000",
478,181,키친사계,37.5251150,127.1308809,서울 강동구 양재대로85길 69,259,"1,000",4.66
479,182,마카롱걸,37.5228756,127.1336913,"서울 강동구 양재대로81길 8 1층, 마카롱걸",164,200,
480,183,진이네 떡볶이,37.5513557,127.1548474,서울 강동구 동남로71길 23 상가 1층,188,"4,000",4.29
481,184,와우신내떡,37.5356356,127.1295122,서울 강동구 천호대로168가길 52,49,400,4.44
482,185,란짠타부리,37.5308632,127.1244573,서울 강동구 성내로9길 49 1층,207,"1,000",4.75
483,186,와카노키친,37.5517336,127.1317991,서울 강동구 암사길 23,182,"2,000",4.77
484,187,천호쭈꾸미,37.5368969,127.1263244,서울 강동구 천호대로158길 14,441,900,4.48
485,188,미양가,37.5272208,127.1343616,서울 강동구 풍성로56길 46,152,600,4.54
486,189,작은깡통,37.5428154,127.1447533,서울 강동구 양재대로124길 47,171,600,4.53
487,190,봄플레이트,37.5324597,127.1406253,서울 강동구 천호대로182길 26 1층 봄플레이트,395,"4,000",4.63
488,191,소문난칼국수,37.5351263,127.1362760,서울 강동구 천호대로 1121 일성하이츠오피스텔,931,"1,000",4.46
489,192,셀프하우스,37.5326760,127.1216050,서울 강동구 올림픽로 572 코오롱 2차 아파트 101동,"1,607","8,000",4.36
490,193,고급아바이순대,37.5343340,127.1402316,서울 강동구 진황도로 127,293,"6,000",4.27
491,194,와카이,37.5399503,127.1254181,서울 강동구 구천면로24길 20-23,89,800,4.57
492,195,브로일링커피 강동점,37.5282727,127.1250004,서울 강동구 성내로10길 9-6 1층,223,"3,000",4.58
493,196,림 2호점,37.5462891,127.1443196,서울 강동구 상암로 198,310,"4,000",4.48
494,197,동남스프링,37.5325905,127.1486997,서울 강동구 동남로49길 24,672,"1,000",4.42
495,198,삼끼막창 본점,37.5428609,127.1243990,서울 강동구 올림픽로77길 10,372,500,4.54
496,199,스시모루,37.5365922,127.1334269,서울 강동구 천호대로 1089 신동아 파밀리에 B1 스시모루,94,"1,000",4.64
497,200,버거타임,37.5574405,127.1696789,서울 강동구 고덕로 399 메가스퀘어동 1층 120호,267,200,4.46
498,201,와줘서고마워요 강동 본점,37.5552527,127.1403474,서울 강동구 고덕로 133 롯데캐슬퍼스트상가 3층 313호,180,500,4.6
499,202,백년화편,37.5229832,127.1331785,서울 강동구 양재대로81길 18 1층,"1,413","3,000",4.47
500,203,땅코참숯구이 명일점,37.5516034,127.1435185,서울 강동구 양재대로143길 8 1층 땅코참숯구이 명일점,149,300,
501,204,온정담 길동본점,37.5335910,127.1362647,서울 강동구 천호대로176길 19 1층,180,300,
502,205,뚜또베네,37.5395540,127.1227881,서울 강동구 천호대로151길 10 1층,169,600,4.86
503,206,열애초밥 고덕역점,37.5547568,127.1544725,서울 강동구 고덕로 262 효성해링턴타워 1층 열애초밥 고덕역점,335,200,4.59
504,207,마시쭈,37.5371591,127.1406469,서울 강동구 진황도로47길 58 마시쭈,197,400,4.64
505,208,왕대포,37.5422758,127.1204648,서울 강동구 구천면로 140 9층,343,800,4.28
506,209,드딜라이트 키친,37.5554875,127.1297424,서울 강동구 올림픽로 834 한강시티라이프 1층,580,800,4.31
507,210,오븐베이크,37.5528191,127.1298523,서울 강동구 고덕로10길 43-3 1층 오븐베이크,304,"4,000",4.75
508,211,심플잇,37.5504475,127.1717586,서울 강동구 구천면로100길 11 1층 101호,117,600,
509,212,램니쿠야 둔촌 본점,37.5255999,127.1337626,서울 강동구 양재대로87길 23,104,"2,000",4.33
510,213,빡빡이삼촌뒷고기,37.5370815,127.1273127,서울 강동구 천호대로 1038,244,600,4.38
511,214,둔촌회관,37.5294569,127.1385143,서울 강동구 양재대로96길 26 정문1층둔촌회관,63,~100,4.88
512,215,카쿠,37.5278992,127.1305150,서울 강동구 성안로 45 진명빌딩 1층,15,"2,000",
513,216,페이브베이커리 강동구청점,37.5284279,127.1221490,서울 강동구 성내로6길 34 1층,214,100,
514,218,영화정해장국,37.5358167,127.1383000,서울 강동구 진황도로43길 9 1층,202,"1,000",4.4
515,219,도미넌트,37.5234657,127.1336985,서울 강동구 양재대로83길 14,164,"4,000",4.54
516,220,토리아에즈,37.5321287,127.1242817,서울 강동구 풍성로 110 1층,66,200,
517,221,신흥정육식당,37.5268953,127.1347060,서울 강동구 양재대로89길 16 파크프라자 126호,788,"3,000",4.31
518,222,별미손칼국수,37.5510661,127.1432587,서울 강동구 양재대로141길 9,628,"1,000",4.44
519,223,암사초밥,37.5522465,127.1297927,서울 강동구 올림픽로100길 25,431,300,4.41
520,224,봉쥬르 쟝딸롱,37.5493482,127.1265344,서울 강동구 올림픽로93길 12 예원빌딩 1층,352,"2,000",4.82
521,225,청춘식당,37.5374930,127.1414506,"서울 강동구 양재대로114길 26 , 1층",99,100,4.67
522,226,코다리요리전문점 만찬,37.5313314,127.1498241,서울 강동구 동남로 640 코다리만찬,584,"2,000",4.36
523,227,만국미식회,37.5384928,127.1276641,서울 강동구 천호대로157길 18 원방빌딩 지하 1층 만국미식회,135,600,4.54
524,228,커피 코너칼럼,37.5276290,127.1313566,서울 강동구 양재대로89길 80 1층,112,"2,000",
525,229,태양수산,37.5495667,127.1279628,서울 강동구 상암로 42,200,"7,000",4.42
526,230,대추집,37.5259298,127.1288954,서울 강동구 성안로3길 14 1층 대추집,19,200,
527,231,양촌리,37.5348454,127.1344539,서울 강동구 천호대로 1108 1층. 2층,971,300,4.28
528,232,돼지먹었소,37.5385706,127.1280422,서울 강동구 천호대로159길 22 강동빌딩 2층,279,300,4.53
529,233,우리콩손두부,37.5352629,127.1374415,서울 강동구 진황도로 100 하이브,394,600,4.26
530,234,어나더 베이글,37.5354501,127.1291721,서울 강동구 풍성로41길 95 1층 어나더 베이글,125,900,4.88
531,235,역전할머니맥주 천호점,37.5394286,127.1273312,"서울 강동구 천호대로157길 37 1층 1호, 2호",578,300,4.31
532,236,바로한국수,37.5312027,127.1497662,서울 강동구 동남로 638,313,300,4.32
533,237,독도쭈꾸미 성내점,37.5369393,127.1264348,서울 강동구 천호대로158길 10,52,"1,000",4.31
534,238,르뱅,37.5365922,127.1334297,서울 강동구 천호대로 1089 상가 1층 르뱅,21,300,
535,239,윤담염소마을,37.5248244,127.1274220,서울 강동구 강동대로 187 1층 윤담염소마을  (올림픽공원 북2문앞),193,300,4.46
536,240,동신상회 둔촌본점,37.5340166,127.1439894,서울 강동구 명일로13길 12,239,"1,000",4.57
537,241,도야족발 길동점,37.5413179,127.1415732,서울 강동구 양재대로 1520,323,100,4.42
538,242,큰집보쌈 천호점,37.5362549,127.1256693,서울 강동구 천호옛길 84 1층,544,300,
539,243,벌스커피,37.5312377,127.1241146,서울 강동구 성내로5길 34 해돋이,196,"1,000",4.54
540,244,도원스타일 천호점,37.5390412,127.1243039,서울 강동구 천호대로 1005 현대백화점 천호점 12층 도원스타일 천호점,481,200,4.44
541,245,원라멘,37.5506056,127.1460942,서울 강동구 구천면로 427 1층 107호,749,"1,000",4.41
542,246,고집 천호점,37.5383289,127.1261341,서울 강동구 천호대로 1027 일동빌딩,241,500,4.45
543,247,씨푸드박스,37.5423175,127.1216972,서울 강동구 구천면로 149 호성빌딩 1층,206,"2,000",4.42
544,248,천호소곱창,37.5395625,127.1295520,서울 강동구 진황도로 17-1,146,700,4.58
545,249,한왕스1980 본점,37.5471705,127.1262689,서울 강동구 올림픽로 737 원풍빌딩,577,800,4.33
546,250,일층,37.5259690,127.1345943,서울 강동구 양재대로89가길 14,108,400,4.35
547,251,교동전선생 천호역점,37.5393702,127.1255641,서울 강동구 올림픽로70길 33 교동전선생,435,200,4.54
548,252,메이탄,37.5349005,127.1368115,서울 강동구 천호대로 1125 강동역 2번출구 도보3분길동사거리위치,676,800,4.33
549,253,모리식당,37.5380910,127.1395290,서울 강동구 양재대로113길 8,352,"1,000",4.53
550,254,119닭발 천호본점,37.5449999,127.1301681,서울 강동구 천중로 73,"1,154",700,4.48
551,255,오징어참치,37.5422296,127.1311938,서울 강동구 구천면로 246,25,"4,000",4.67
552,256,곱분이곱창 상일동역점,37.5580301,127.1697896,서울 강동구 고덕로 399 메가스퀘어동 1층 166호,349,~100,4.37
553,257,담백,37.5508227,127.1297195,서울 강동구 올림픽로98길 29 1층,117,200,4.32
554,258,cafe1501,37.5436568,127.1310440,서울 강동구 구천면로35길 16 1층,116,"1,000",4.58
555,259,카페 구교리,37.5305185,127.1382092,서울 강동구 풍성로61길 44 1층 카페구교리,42,~100,
556,260,헤븐스키,37.5385014,127.1275006,서울 강동구 천호대로157길 18 원방빌딩 지하1층 헤븐스키,93,600,4.41
557,261,그집김밥,37.5491023,127.1301411,서울 강동구 상암로 61 1층 그집김밥,296,200,4.55
558,262,용용선생 천호점,37.5389302,127.1270458,서울 강동구 천호대로157길 19 2층,162,900,
559,263,고덕커피,37.5503657,127.1690331,서울 강동구 구천면로 640 1층,313,200,4.86
560,264,종로계림닭도리탕원조 천호점,37.5395587,127.1269611,서울 강동구 올림픽로70길 61 두산위브센티움 108호,320,600,4.77
561,265,솜솜베이커리,37.5530732,127.1307334,서울 강동구 암사1가길 37 1층 솜솜베이커리,462,"6,000",4.68
562,266,철판살롱,37.5360048,127.1250743,서울 강동구 천호옛길 79-1,178,"1,000",4.73
563,267,서초면옥 천호본점,37.5461074,127.1264494,서울 강동구 올림픽로 728,"1,679",800,4.26
564,268,쌍둥이네포장마차,37.5472850,127.1338704,서울 강동구 상암로 102 문경빌딩,170,"1,000",4.49
565,269,곱분이곱창 길동점,37.5366706,127.1406378,서울 강동구 양재대로112길 16 1층 103호,232,100,4.43
566,270,미테이블 강동점,37.5369620,127.1385757,서울 강동구 양재대로111길 15 탑스위트오피스텔 1층 건물안쪽,356,"1,000",
567,271,모닝그루브,37.5347588,127.1350829,서울 강동구 천호대로 1116 라이저 강동빌딩 1층 103호,319,200,4.31
568,272,러브올디저트,37.5395915,127.1278469,서울 강동구 천호대로157길 44 2층,184,500,4.89
569,273,세꼬시,37.5334530,127.1379910,서울 강동구 양재대로 1427,361,"3,000",4.43
570,274,동경규동 상일동역점,37.5574405,127.1696789,서울 강동구 고덕로 399 메가스퀘어동 지1층 B121호,576,200,4.35
571,275,두성전주콩나물국밥 길동점,37.5355804,127.1394430,서울 강동구 양재대로 1454 1층,"1,223",100,4.33
572,276,마부 마라탕&마라샹궈,37.5367081,127.1262804,서울 강동구 천호대로158길 18 1층,142,100,4.54
573,277,풍년비빔국수,37.5370970,127.1261801,서울 강동구 천호옛길 96 2층,344,900,4.4
574,278,강동짬뽕,37.5377066,127.1373695,서울 강동구 천중로40길 78,208,500,4.42
575,279,커피랑도서관 올림픽공원점,37.5256219,127.1298827,서울 강동구 성안로 22 2층,79,100,4.94
576,280,750식당,37.5334114,127.1404394,서울 강동구 천호대로 1162 세양청마루아파트 상가 101호,395,200,4.3
577,281,피에로커피,37.5266221,127.1266172,서울 강동구 성내로14길 27,543,"1,000",
578,282,주택가 천호,37.5360328,127.1267143,서울 강동구 천호옛14길 22 2층,112,800,
579,283,피콜로,37.5355750,127.1293863,서울 강동구 천호대로168가길 51,307,"3,000",4.63
580,284,킹콩파스타,37.5375982,127.1406382,서울 강동구 진황도로47길 67 1층 킹콩파스타,473,"1,000",4.45
581,285,유미마라탕,37.5367248,127.1258984,서울 강동구 천호옛길 90,536,400,4.43
582,286,장안면옥 명일동점,37.5464701,127.1555500,서울 강동구 상암로 297,"1,471",700,4.37
583,287,암사고바우감자탕,37.5532273,127.1289749,서울 강동구 올림픽로 812,287,400,4.53
584,288,크리스탈제이드 현대백화점 천호점,37.5389906,127.1244167,서울 강동구 천호대로 1005 현대백화점 천호점 12층,28,~100,
585,289,명일한방삼계탕,37.5462325,127.1441877,서울 강동구 상암로 196 명일동파크빌딩,720,100,4.3
586,290,루이,37.5536300,127.1278396,서울 강동구 상암로3길 72 1층,421,500,4.6
587,291,쭈꾸쭈꾸쭈꾸미 본점,37.5371834,127.1263513,서울 강동구 천호옛길 98,731,"4,000",4.31
588,292,오마이베이글,37.5282018,127.1251361,서울 강동구 성내로10길 9-10 1층,20,~100,
589,293,한마음정육식당 천호점,37.5412021,127.1406159,서울 강동구 양재대로 1517 1층 한마음정육식당,348,200,
590,294,커피방,37.5351577,127.1312598,서울 강동구 천호대로168나길 3 1층,165,700,4.57
591,295,동구밖장작구이,37.5265413,127.1459835,서울 강동구 풍성로 309,372,700,4.39
592,296,라화쿵부 천호점,37.5394410,127.1254338,서울 강동구 올림픽로70길 31 2층,657,100,4.54
593,297,바하마스,37.5347975,127.1400572,서울 강동구 진황도로 123,174,"5,000",4.7
594,298,용문칼국수,37.5491031,127.1724632,서울 강동구 상일로5길 10,502,"1,000",4.46
595,299,젤라또피오니 고덕,37.5546937,127.1551146,서울 강동구 고덕로 266 대명밸리온 1층 117호,25,~100,
596,0,단군산장,37.6427629,127.0018910,서울 강북구 4.19로28길 19-9,149,"1,000",4.26
597,1,미림산장,37.6738449,127.0044899,서울 강북구 삼양로181길 253 우이동미림산장,571,"1,000",4.27
598,2,하이그라운드제빵소,37.6702903,127.0073881,서울 강북구 삼양로181길 161,709,700,
599,3,티틸,37.6391998,127.0229540,서울 강북구 노해로 42 2F,205,"3,000",
600,4,카페 산아래,37.6667756,127.0106168,서울 강북구 삼양로181길 56 102호,"1,212","64,000",4.47
601,5,구테로이테 수유 에피소드,37.6369295,127.0232817,서울 강북구 도봉로 315 에피소드 수유 838 1F,372,"1,000",
602,6,무너미,37.6397965,127.0236039,서울 강북구 노해로8가길 40,428,"15,000",4.44
603,7,청수가든,37.6430012,127.0015411,서울 강북구 4.19로28길 29,131,"1,000",4.26
604,8,후라토식당 수유점,37.6369295,127.0232817,서울 강북구 도봉로 315 에피소드수유838 2층,246,400,
605,9,엘림들깨수제비칼국수,37.6400133,127.0118179,서울 강북구 삼각산로 67,"3,307","14,000",4.7
606,10,옥류헌릴렉스,37.6699262,127.0079750,서울 강북구 삼양로181길 142 옥류정,"1,684","4,000",
607,11,제일분식,37.6125852,127.0289574,서울 강북구 숭인로 65-3,"1,489","10,000",4.23
608,12,김군네짬뽕,37.6138758,127.0346380,서울 강북구 오패산로30길 13,259,"2,000",
609,13,개나리산장&개나리포차,37.6557326,126.9985871,서울 강북구 삼양로173길 319 개나리산장포차,165,900,4.38
610,14,왕의장어,37.6696627,127.0072613,서울 강북구 삼양로181길 141-5,761,900,4.38
611,15,원조할매곱창,37.6126462,127.0315000,서울 강북구 월계로3길 68,988,"5,000",4.37
612,16,대동집 미아사거리점,37.6125448,127.0306899,서울 강북구 도봉로6길 8 1층,"1,789","5,000",4.95
613,17,식껍 미아점,37.6122542,127.0306728,서울 강북구 도봉로 34-4 1층,188,200,4.98
614,18,보배반점 수유직영점,37.6369295,127.0232817,서울 강북구 도봉로 315 1층 R110호,126,~100,
615,19,고메스퀘어 수유점,37.6356641,127.0238352,서울 강북구 도봉로 308 9층,181,100,
616,20,데어유고,37.6130508,127.0328267,서울 강북구 오현로6길 77,132,"1,000",4.91
617,21,수유리조트,37.6401039,127.0233403,서울 강북구 노해로8가길 45,"1,892","8,000",4.39
618,22,백란,37.6718361,127.0055560,서울 강북구 삼양로181길 201-20,"1,449","4,000",4.53
619,23,황주집,37.6401750,127.0282810,서울 강북구 도봉로 372,953,"11,000",4.42
620,24,흥부전놀부전,37.6393820,127.0228980,서울 강북구 노해로 42-1,781,"10,000",4.44
621,25,원조왕십리곱창,37.6409958,127.0275151,서울 강북구 한천로140길 23,126,~100,4.3
622,26,선데이 베이글,37.6408070,127.0246280,서울 강북구 한천로143길 12 1층,275,"2,000",
623,27,미녀가든,37.6397821,127.0245427,서울 강북구 한천로139나길 22 1층,298,"3,000",4.45
624,28,수유손칼국수,37.6439712,127.0283701,서울 강북구 도봉로101길 45,"1,550","3,000",4.36
625,29,대보명가,37.6457705,127.0071826,서울 강북구 4.19로 69,"1,913","4,000",4.31
626,30,무청감자탕 수유점,37.6390033,127.0233209,"서울 강북구 도봉로87길 47 1, 2층",205,700,
627,31,미분당 수유점,37.6373526,127.0266681,서울 강북구 오패산로 410,663,800,4.54
628,32,상미규카츠 수유본점,37.6390612,127.0241837,서울 강북구 도봉로87길 32 1층 상미규카츠,"1,455","1,000",4.5
629,33,섬진강민물장어,37.6466942,127.0170529,서울 강북구 한천로 1151,441,700,4.59
630,34,오늘통닭 수유본점,37.6408732,127.0291509,서울 강북구 도봉로 384 오늘통닭,"1,873","1,000",4.34
631,35,어셈블,37.6382168,127.0292110,서울 강북구 한천로 1007 1층,83,400,4.88
632,36,쿠시 수유본점,37.6386664,127.0234965,서울 강북구 노해로8길 9-20,"2,214","6,000",4.84
633,37,선운산장,37.6583651,127.0026254,서울 강북구 삼양로173길 220,221,"1,000",4.34
634,38,화로상회 수유점,37.6408447,127.0277074,서울 강북구 한천로140길 22,267,100,4.25
635,39,소담촌 미아사거리점,37.6095827,127.0306643,서울 강북구 월계로 3 덕신빌딩 5층,"1,763",600,4.46
636,40,삼각산숯불생고기,37.6587496,127.0133111,서울 강북구 삼양로163길 8,233,600,4.72
637,41,수유라멘,37.6384750,127.0274081,서울 강북구 한천로131길 17 1층 수유라멘,394,600,4.58
638,42,파스타브로,37.6396069,127.0243099,서울 강북구 도봉로87길 34-19,374,800,4.79
639,43,큰두레참숯무한리필,37.6337106,127.0237085,서울 강북구 도봉로 284 1층,397,800,4.65
640,44,아띠랑스,37.6472675,127.0094928,"서울 강북구 4.19로 42-1 1,2층 아띠랑스커피숍","1,097",400,4.37
641,45,조연탄,37.6408036,127.0275758,서울 강북구 한천로140길 20,509,"2,000",4.57
642,46,능이마을,37.6170212,127.0286821,서울 강북구 솔샘로 330 1층 능이마을,"1,146",400,4.41
643,47,장수마늘보쌈,37.6357836,127.0350889,서울 강북구 덕릉로 192,"1,635","2,000",4.44
644,48,진미기사식당,37.6474099,127.0161387,서울 강북구 한천로 1163 1층 진미기사식당,290,"2,000",4.37
645,49,삼청동샤브 에피소드수유838점,37.6366541,127.0232341,서울 강북구 도봉로 315 1층 R107호,362,400,
646,50,빌런바,37.6389380,127.0255631,서울 강북구 한천로139길 29 4층,30,~100,
647,51,주막,37.6127933,127.0320212,서울 강북구 월계로7나길 30-3,304,"1,000",4.57
648,52,등용문,37.6391946,127.0238613,서울 강북구 도봉로87길 38 2층 등용문,32,100,
649,53,진호횟집,37.6412617,127.0314406,서울 강북구 도봉로98길 33 진호횟집,713,"5,000",4.55
650,54,바우,37.6141582,127.0316340,서울 강북구 도봉로10나길 19-8 B01,21,300,
651,55,한일산장,37.6731229,127.0051179,서울 강북구 삼양로181길 239 한일산장,189,300,4.37
652,56,이설함흥냉면,37.6473378,127.0096772,서울 강북구 4.19로 42 이설함흥냉면,"1,560","1,000",4.3
653,57,시래기화덕생선구이,37.6460422,127.0077917,서울 강북구 4.19로 61-1 1층,"2,165","1,000",4.29
654,58,분코 수유점,37.6392000,127.0241252,서울 강북구 도봉로87길 34-4,439,"2,000",4.73
655,59,계원 수유점,37.6405345,127.0236778,서울 강북구 한천로143길 29 동방플러스빌 1층 계원,324,"3,000",
656,60,겹,37.6394258,127.0234041,"서울 강북구 노해로8가길 33 1, 2층",430,"2,000",4.61
657,61,키니베이크샵,37.6367229,127.0302633,서울 강북구 덕릉로41길 38 키니 베이크샵,66,~100,
658,62,헤비앤라이트,37.6408372,127.0249421,서울 강북구 한천로143길 7 1층 (서울특별시 강북구 수유동 190-76),256,"1,000",4.61
659,63,지동닭갈비 본점,37.6408112,127.0326023,서울 강북구 도봉로102길 60-7,348,"1,000",4.53
660,64,히피스베이글,37.6500870,127.0136600,서울 강북구 삼양로 528,"1,287","6,000",4.51
661,65,단풍관,37.6395843,127.0245372,서울 강북구 한천로139나길 19 1층,298,"2,000",4.47
662,66,아람장,37.6680511,127.0091188,서울 강북구 삼양로181길 88 아람장,99,200,4.31
663,67,오늘베이크샵,37.6393282,127.0219617,서울 강북구 삼각산로34길 57 1층,49,100,
664,68,오봉집 미아점,37.6257645,127.0255350,서울 강북구 솔매로46길 6,515,"1,000",4.55
665,69,라와마라탕 본점,37.6141324,127.0311363,서울 강북구 도봉로10길 32 1층,173,~100,
666,70,조개일번지,37.6121233,127.0321692,서울 강북구 도봉로8길 37,845,"1,000",4.41
667,71,어니언 미아,37.6239182,127.0280716,서울 강북구 솔매로50길 55 카페 어니언,"1,164","6,000",4.51
668,72,동네함박,37.6163610,127.0291386,서울 강북구 도봉로15길 11 2층,342,"4,000",4.38
669,73,문가네정육식당 수유본점,37.6423483,127.0231864,서울 강북구 한천로 1077 문가네정육식당,"1,744","1,000",4.39
670,74,용인가든,37.6691197,127.0082318,,129,700,4.33
671,75,느자구,37.6138397,127.0321487,서울 강북구 오패산로31길 32 1층 느자구,86,"1,000",4.88
672,76,수유부추곱창,37.6393031,127.0247812,서울 강북구 도봉로87길 26-21,605,900,4.68
673,77,육두막,37.6390147,127.0231734,서울 강북구 노해로 38,291,"1,000",4.64
674,78,화로상회 미아1호점,37.6190187,127.0221045,서울 강북구 솔샘로 266-1,338,100,4.5
675,79,우디플레이트,37.6649461,127.0076861,서울 강북구 삼양로 689 114동 2층,334,700,4.52
676,80,수유 대세,37.6395807,127.0236329,"서울 강북구 노해로8가길 34-1 1,2층",270,"1,000",
677,81,카페멘디,37.6472360,127.0087269,서울 강북구 4.19로8길 7-2,598,"3,000",4.25
678,82,한옥쌈밥,37.6146022,127.0314090,서울 강북구 도봉로10다길 9,466,400,4.32
679,83,사위식당 수유점,37.6369295,127.0232817,서울 강북구 도봉로 315,302,"1,000",
680,84,PARASPARA DELI,37.6649461,127.0076861,서울 강북구 삼양로 689 파라스파라 서울 114동 L층,82,900,4.5
681,85,지호한방삼계탕 북서울꿈의숲점,37.6206534,127.0450613,서울 강북구 월계로 183,613,100,4.38
682,86,짬뽕취향 미아점,37.6183775,127.0251268,서울 강북구 솔샘로 293 1층 짬뽕취향 미아점,486,~100,
683,87,쉐이크쉑 수유점,37.6369294,127.0232817,"서울 강북구 도봉로 315 (수유동, 에피소드 수유 838) 1층 쉐이크쉑 수유점",673,200,
684,88,일도씨닭갈비 미아점,37.6127267,127.0314026,서울 강북구 도봉로10가길 8-13,513,400,4.15
685,89,청춘 무한리필 조개구이 수유점,37.6383555,127.0230515,서울 강북구 노해로 32 1층 청춘 무한리필 조개구이,22,~100,
686,90,소희네,37.6127091,127.0317271,서울 강북구 월계로7나길 39 2층 카페 소희네,413,900,4.61
687,91,무한리필감자탕 대가집 본점,37.6473558,127.0167830,서울 강북구 한천로 1158 1층,303,"5,000",4.17
688,92,왕가,37.6634830,127.0120460,서울 강북구 삼양로 681 왕가빌딩,"1,173",500,4.31
689,93,아카렌 수유점,37.6405030,127.0252004,서울 강북구 한천로139가길 26,240,"1,000",4.37
690,94,플레이버,37.6384712,127.0277302,서울 강북구 덕릉로41길 100,200,"1,000",4.45
691,95,깃든,37.6132653,127.0316888,서울 강북구 월계로7나길 46-5 1층 깃든,364,"1,000",4.48
692,96,몽브루,37.6437447,127.0039219,서울 강북구 4.19로 105 몽브루,"1,243","2,000",4.24
693,97,숲속에바다,37.6717660,127.0072421,서울 강북구 삼양로181길 194-19,166,600,4.48
694,98,옛가칼국수,37.6439511,127.0219838,서울 강북구 노해로 91-14,362,300,
695,99,풍천장어마을,37.6659304,127.0102854,서울 강북구 삼양로181길 45 풍천장어마을,"1,309","1,000",4.29
696,100,상미식당,37.6361314,127.0226839,서울 강북구 수유로 82,327,"1,000",4.56
697,101,헤이호미,37.6396299,127.0231570,서울 강북구 노해로14길 7 1층,114,"1,000",4.97
698,102,샘터마루,37.6466714,127.0061284,서울 강북구 4.19로12길 35,"2,247","6,000",4.34
699,103,밤야식당,37.6356498,127.0191707,서울 강북구 삼양로92길 48 1층,66,800,4.62
700,104,녹베이크샵,37.6127301,127.0288487,서울 강북구 숭인로 65-3 1층,325,"1,000",4.74
701,105,짚신매운갈비찜 미아본점,37.6128385,127.0319616,서울 강북구 월계로7나길 30-9,667,600,4.38
702,106,도베르,37.6394995,127.0246242,서울 강북구 한천로139나길 17 1층 도베르,144,100,
703,107,소담촌 수유점,37.6413422,127.0296291,서울 강북구 도봉로 388 테마빌딩 8층,"1,648",500,4.46
704,108,경성양꼬치 미아삼거리점,37.6135228,127.0310536,서울 강북구 월계로7나길 60,476,"1,000",4.46
705,109,ONDO,37.6394417,127.0243221,서울 강북구 도봉로87길 32-9 1층,115,"1,000",4.73
706,110,레드포션 테라스카페,37.6385360,127.0237592,"서울 강북구 노해로8가길 10 1,2층",217,800,
707,111,초원가든,37.6737861,127.0050155,서울 강북구 삼양로181길 251,102,500,4.26
708,112,명인갈비 미아점,37.6174576,127.0285811,서울 강북구 솔샘로 327 테마빌딩 1층 명인갈비,"1,200",200,4.43
709,113,금복주류 미아사거리점,37.6131132,127.0312510,서울 강북구 도봉로10가길 11,124,300,4.94
710,114,천회초밥,37.6417674,127.0222259,서울 강북구 노해로 69,430,"1,000",4.52
711,115,수유갈비 산성골,37.6348503,127.0277574,서울 강북구 덕릉로 126 1층 산성골,502,"1,000",4.44
712,116,화수브루어리 서울강북점,37.6402739,127.0120254,서울 강북구 인수봉로 238,94,400,4.54
713,117,대패상회 수유점,37.6410078,127.0177777,서울 강북구 삼각산로 121-1,284,~100,4.14
714,118,지호한방삼계탕 수유점,37.6400910,127.0257370,서울 강북구 한천로139가길 12,973,100,4.39
715,119,분코 미아사거리점,37.6127518,127.0316205,서울 강북구 월계로7나길 41 2층,194,"1,000",4.54
716,120,컴 폴 커피,37.6348410,127.0280985,서울 강북구 덕릉로 130 1층,69,700,4.81
717,121,곰보냉면,37.6471855,127.0211794,서울 강북구 노해로33길 64 64,138,"2,000",4.16
718,122,스시노칸도 수유점,37.6390885,127.0251667,서울 강북구 한천로139나길 1 3층,"1,184","2,000",4.45
719,123,그라운드 플로어,37.6282594,127.0247520,서울 강북구 솔매로45길 50,160,400,4.86
720,124,다래함박스텍,37.6327810,127.0190130,서울 강북구 수유로 20-2,"1,845","3,000",4.45
721,125,카페수유동,37.6468184,127.0247302,서울 강북구 노해로35길 7 1층.2층.3층,76,400,4.39
722,126,대광어회집,37.6385400,127.0226005,서울 강북구 노해로 31,888,"2,000",4.43
723,127,페넬로페,37.6378458,127.0230721,서울 강북구 노해로8길 1 페넬로페,304,400,4.43
724,128,올드델리,37.6392805,127.0266994,서울 강북구 도봉로 355,408,500,4.45
725,129,월곡동대머리곱창,37.6128626,127.0289257,서울 강북구 숭인로 65-6,498,900,4.42
726,130,수유다락,37.6405679,127.0268954,서울 강북구 한천로140길 5-6,218,"1,000",4.85
727,131,도너리비해피,37.6139227,127.0317572,서울 강북구 도봉로10나길 21 지층,16,300,
728,132,히솝,37.6128596,127.0311859,서울 강북구 도봉로10가길 16-4 1층,53,~100,
729,133,벼랑순대국 본점,37.6343190,127.0372279,서울 강북구 한천로 924,962,"3,000",4.46
730,134,펠어커피초코 수유점,37.6389250,127.0221452,서울 강북구 노해로11길 9 101호,313,"1,000",
731,135,음밥,37.6231212,127.0281738,서울 강북구 솔매로50길 78 1층,81,400,4.68
732,136,제이제곱,37.6138476,127.0315744,서울 강북구 도봉로10나길 17 1층,481,"1,000",4.57
733,137,조그삼 수유점,37.6393758,127.0224726,"서울 강북구 노해로 41 1층 104호,105호,106호",88,300,4.32
734,138,돈킴,37.6201205,127.0281076,서울 강북구 도봉로27길 5,225,200,4.52
735,139,우리콩순두부,37.6625000,127.0099960,서울 강북구 삼양로173길 46,945,"1,000",4.4
736,140,맘스터치 수유역점,37.6382056,127.0251165,서울 강북구 도봉로87길 7,"1,182",100,4.34
737,141,레알 간장게장 무한리필,37.6368396,127.0301531,서울 강북구 덕릉로41길 42 1층 레알 간장게장 직영점,146,300,
738,143,키토산우이산장,37.6695377,127.0077000,서울 강북구 삼양로181길 141-5 키토산오리집,"1,064",300,4.35
739,144,소귀골백운산장,37.6719791,127.0062062,서울 강북구 삼양로181길 206,78,100,4.32
740,145,신매콤터,37.6374321,127.0266000,서울 강북구 오패산로 412,795,"2,000",4.16
741,146,파골집,37.6134738,127.0294435,서울 강북구 도봉로 45,373,200,4.37
742,147,미아회관,37.6130161,127.0312996,서울 강북구 도봉로10가길 15 1층,518,900,4.69
743,148,라무진 미아사거리역점,37.6145317,127.0315478,서울 강북구 도봉로10다길 12 1층,40,~100,
744,149,삼다도,37.6191667,127.0206433,서울 강북구 삼양로29길 10-16,269,"2,000",4.34
745,150,화니중식,37.6393703,127.0248487,"서울 강북구 한천로139나길 11 1, 2층",276,800,4.59
746,151,나고미,37.6381033,127.0241778,서울 강북구 노해로8길 22,103,400,4.63
747,152,오복닭한마리,37.6131906,127.0311570,서울 강북구 도봉로10가길 9,522,600,4.44
748,153,털보정육식당,37.6421897,127.0240813,"서울 강북구 한천로 1072 동보빌딩 1, 2층",376,400,4.46
749,154,연화양꼬치,37.6425770,127.0235473,서울 강북구 한천로 1078-1,321,700,4.42
750,155,일렉트,37.6399483,127.0245528,서울 강북구 한천로139나길 14-17 2층,74,"1,000",5
751,156,BUN418,37.6376042,127.0263512,서울 강북구 오패산로 414,807,"1,000",4.26
752,157,저스트라운지,37.6388784,127.0251023,서울 강북구 한천로139길 42 영남빌딩 1층 102호,98,100,
753,158,정아각 수유점,37.6418588,127.0247654,서울 강북구 한천로 1064 1층 정아각,272,"1,000",4.65
754,159,ANALOGUE 55-47,37.6126881,127.0317294,서울 강북구 월계로7나길 39,9,100,
755,160,정통집 수유점,37.6386750,127.0247599,서울 강북구 한천로139길 46 2층 3층,283,900,4.43
756,161,리얼파스타 수유점,37.6392149,127.0249244,서울 강북구 도봉로87길 26-12 지하 1층,603,900,4.43
757,162,파도포차,37.6391386,127.0242824,서울 강북구 도봉로87길 32-4 1층 파도포차,205,800,4.44
758,163,산이네,37.6452098,127.0056154,서울 강북구 4.19로 86 산이네,269,200,4.38
759,164,시골길본점,37.6701280,127.0065030,서울 강북구 삼양로179길 172,317,500,4.37
760,165,미즐카페엠,37.6436116,127.0037966,서울 강북구 4.19로 107,"1,162","1,000",4.19
761,166,옛곰탕집,37.6315304,127.0227602,서울 강북구 도봉로71가길 4,337,"3,000",4.42
762,167,낙지일번지,37.6392031,127.0260760,서울 강북구 도봉로89길 10,"1,509",900,4.43
763,168,CBC,37.6371947,127.0198947,서울 강북구 삼각산로28길 84 1층,55,"1,000",4.87
764,169,크을농,37.6445861,127.0051297,서울 강북구 4.19로 91 크을농,496,800,4.42
765,170,늘봄아갑찜,37.6129524,127.0310205,"서울 강북구 도봉로10가길 8-3 1,2층",710,"1,000",4.33
766,171,한상차림밥상,37.6407691,127.0155632,서울 강북구 삼각산로 103 1층,320,"5,000",4.2
767,172,샐러디 수유역점,37.6392044,127.0265967,서울 강북구 도봉로 353-1 1층,889,200,4.5
768,173,여러분평양냉면,37.6424921,127.0239539,서울 강북구 한천로 1074 1층 여러분평양냉면,248,"1,000",4.65
769,174,도손,37.6414233,127.0171340,서울 강북구 삼양로 424 1층 9호 도손,25,100,
770,175,전라도곱창,37.6126909,127.0324031,서울 강북구 월계로7나길 28,146,300,4.62
771,176,골방집,37.6344487,127.0369375,서울 강북구 한천로 926,736,300,4.29
772,177,애슐리퀸즈 미아사거리역점,37.6135633,127.0304333,서울 강북구 도봉로 52 Y스퀘어 5층,"3,606",500,4.11
773,178,금잔화,37.6120226,127.0335889,서울 강북구 월계로7길 42 1층,134,"1,000",4.67
774,179,버거파크,37.6351426,127.0229794,"서울 강북구 도봉로81길 3 광복빌딩 1,2층",273,500,4.55
775,180,경아식당 수유점,37.6385167,127.0242200,"서울 강북구 노해로8길 29 101 ,102호",240,800,
776,181,부부횟집 수유점,37.6350518,127.0259229,서울 강북구 덕릉로 109,269,300,4.24
777,182,진미숯불닭갈비,37.6122339,127.0305172,서울 강북구 도봉로 36 1층,110,100,4.53
778,183,삼덕식당 미아사거리점,37.6125539,127.0322990,서울 강북구 월계로7나길 29,410,800,4.48
779,184,동원식당,37.6414576,127.0289634,서울 강북구 도봉로 387 2층,182,100,4.38
780,185,통영산꼼장어,37.6351830,127.0243830,서울 강북구 덕릉로 93-10 1층 통영산꼼장어,120,"1,000",4.68
781,186,김밥천국 가오리역점,37.6406801,127.0165649,서울 강북구 삼각산로 112,334,200,4.22
782,187,춘계리21,37.6390187,127.0239420,서울 강북구 도봉로87길 35 1층,123,100,4.5
783,188,북한산 인수재,37.6484031,127.0019306,서울 강북구 4.19로12길 60-93 인수재,15,"16,000",4.86
784,189,미도인 수유,37.6369975,127.0234534,서울 강북구 도봉로 315 R109호,223,"2,000",
785,190,우이정원,37.6665894,127.0106963,서울 강북구 삼양로181길 48 먹거리마을 우측 첫번째집,85,100,
786,191,춘천막국수,37.6505089,127.0128211,서울 강북구 삼양로141길 4-4 춘천막국수,650,"1,000",4.3
787,192,삼떡캠핑,37.6392608,127.0248692,서울 강북구 도봉로87길 26-12 2층,32,"1,000",4.64
788,193,냉삼돈탐라제주1977 수유점,37.6346622,127.0252181,서울 강북구 덕릉로 104,115,300,4.4
789,194,강북연탄곱창,37.6119865,127.0312930,"서울 강북구 월계로3길 50 1층, 미아사거리역 CGV 건물 후문 앞 (주차장 입구 건너편)",42,~100,4.41
790,195,모모술방,37.6407635,127.0268805,서울 강북구 한천로140길 11-5 1층,45,300,4.83
791,196,쪼밍키친,37.6394897,127.0261744,서울 강북구 한천로139길 13 1층,50,~100,
792,197,까미노빵집,37.6461469,127.0079010,서울 강북구 4.19로 61,"1,110",700,4.47
793,198,탐라포차 수유점,37.6388784,127.0251023,서울 강북구 한천로139길 42 영남빌딩 3층,134,200,4.44
794,199,글로어 미아래미안점,37.6142902,127.0215546,서울 강북구 삼양로19길 25 상가동 3-1호,30,~100,
795,200,노르웨이안우드,37.6467561,127.0107305,서울 강북구 인수봉로 314 지하 1층,220,"3,000",
796,201,김밥은,37.6389025,127.0287842,서울 강북구 한천로 1016,616,600,4.42
797,202,키치,37.6414899,127.0288895,서울 강북구 도봉로 387 1층,210,"1,000",4.65
798,203,잭슨바비큐 미아점,37.6112283,127.0334171,서울 강북구 도봉로8길 65-2 1층.우측 잭슨바비큐,76,300,4.7
799,204,예와손만두,37.6475736,127.0098504,서울 강북구 4.19로 40-8 예와손만두,438,"1,000",4.43
800,205,명륜진사갈비 서울미아역점,37.6222581,127.0281197,서울 강북구 도봉로 150 창림빌딩1층,437,~100,4.38
801,206,혜영이네,37.6307853,127.0229691,서울 강북구 도봉로67길 18 1층 스낵코너 혜영이네,145,100,4.49
802,207,인쌩맥주 수유역점,37.6388666,127.0242201,서울 강북구 도봉로87길 27,138,100,3.89
803,208,아이엠,37.6392596,127.0224856,서울 강북구 노해로 41 동아빌딩 2층,67,100,4.97
804,209,카페문나잇,37.6261438,127.0270982,서울 강북구 솔매로50길 7,102,500,4.62
805,210,연탄집,37.6362287,127.0253481,서울 강북구 오패산로77길 31,377,700,4.35
806,211,비바서울,37.6403780,127.0233537,서울 강북구 노해로8가길 49 1층,109,"4,000",4.38
807,213,호텔글로리 수유점,37.6388784,127.0251023,서울 강북구 한천로139길 42 지하2층 (서울특별시 강북구 수유동 192-61 지하2층),95,200,4.3
808,214,수유닭한마리수유동본점,37.6365799,127.0227950,서울 강북구 노해로 11,215,200,4.35
809,215,토모,37.6393707,127.0232953,서울 강북구 도봉로87길 46-5 1층,54,~100,4.14
810,217,지우정,37.6408120,127.0186780,서울 강북구 삼각산로 130 1층,110,600,
811,218,떡슐랭 수유점,37.6403859,127.0252412,서울 강북구 한천로139가길 22 1층,262,100,
812,219,플레어비 롯데백화점미아점,37.6146006,127.0305324,서울 강북구 도봉로 62 롯데백화점미아점 9층,378,~100,4.45
813,220,미아사거리 와썹,37.6127656,127.0322029,서울 강북구 월계로7나길 30-2,96,200,4.34
814,221,눈꽃스테이크하우스 미아사거리점,37.6129158,127.0317717,서울 강북구 월계로7나길 42 2층,14,~100,
815,222,포앤시드니 수유점,37.6388631,127.0261410,서울 강북구 도봉로89길 1,713,300,4.44
816,223,토담골삼계탕,37.6346640,127.0248508,서울 강북구 덕릉로 100-1,108,~100,4.41
817,224,산 음식점,37.6581648,127.0029857,서울 강북구 삼양로173길 207,173,200,4.46
818,225,청화가든,37.6457535,127.0041745,서울 강북구 4.19로12길 75,369,"5,000",4.36
819,226,만두향,37.6358358,127.0285285,서울 강북구 한천로123길 61,302,"3,000",4.32
820,227,라 포레스타,37.6224540,127.0396104,서울 강북구 월계로 173,637,400,4.31
821,228,맥도날드 수유점,37.6379359,127.0259400,서울 강북구 도봉로 342,"5,019",200,4.37
822,229,펠리즈,37.6384423,127.0254480,"서울 강북구 도봉로89길 5-15 지하 1층, 지상 1층",106,400,4.64
823,230,S 서서갈비 미아사거리점,37.6135113,127.0313408,서울 강북구 오패산로31길 48,138,100,4.73
824,231,토방,37.6398249,127.0112301,서울 강북구 삼각산로 63 1층,574,"1,000",
825,232,파리바게뜨 카페수유역점,37.6380167,127.0252782,서울 강북구 도봉로 337 (수유동) [수유역 7번출구 앞],"5,418",100,4.34
826,233,수유골목냉면 본점,37.6300239,127.0239999,서울 강북구 솔매로45길 92,891,300,4.32
827,234,비스트로알베르,37.6329641,127.0242715,서울 강북구 도봉로76길 9 1층,143,"1,000",4.81
828,235,화로몽 수유점,37.6387953,127.0236758,서울 강북구 노해로8가길 18,287,900,
829,236,코스모,37.6155985,127.0324056,서울 강북구 오현로6길 19 코스모 서울,156,"1,000",
830,237,카페 풀고르,37.6236225,127.0275014,서울 강북구 도봉로 166,110,100,4.76
831,238,홍곱창 수유점,37.6392330,127.0248989,서울 강북구 도봉로87길 26-12 1층,249,400,4.74
832,239,파조쿠치나,37.6402235,127.0115473,서울 강북구 인수봉로 239,414,"2,000",4.45
833,240,구석집,37.6403692,127.0224044,서울 강북구 노해로 53 1층,47,300,4.38
834,241,백소정 수유점,37.6392645,127.0282243,서울 강북구 한천로 1024,"2,511","1,000",4.62
835,242,엘피와음악사랑,37.6139055,127.0310274,서울 강북구 도봉로10길 28 지층,35,500,4.13
836,243,사대족발 수유본점,37.6413196,127.0280508,서울 강북구 한천로140길 35,142,~100,4.58
837,244,할머니왕족발,37.6386100,127.0237434,서울 강북구 노해로8가길 12,123,100,4.47
838,245,장강기사님식당,37.6357950,127.0205600,서울 강북구 수유로 62-1,318,300,4.47
839,246,무이식당,37.6434420,127.0259406,서울 강북구 도봉로97길 72 1층,213,"1,000",4.69
840,247,빈세앙카페,37.6369613,127.0269445,서울 강북구 오패산로 405 1층,288,500,4.86
841,248,송연95닭갈비,37.6112418,127.0329969,서울 강북구 도봉로8길 62,367,400,4.51
842,249,문,37.6405644,127.0296503,서울 강북구 도봉로96길 11 1층,23,100,5
843,250,왕빈자삼파전,37.6123841,127.0317882,서울 강북구 도봉로8길 25,451,"1,000",4.34
844,251,소특육회,37.6394992,127.0237541,서울 강북구 노해로8가길 34 2층,75,500,4.58
845,252,일미집 2호점,37.6111237,127.0324000,서울 강북구 도봉로4길 34,123,400,4.48
846,253,더맛있는족발보쌈 미아점,37.6254715,127.0256091,서울 강북구 솔매로46길 14 1층,55,~100,
847,254,무한리필,37.6295929,127.0175201,서울 강북구 삼양로73길 9,17,~100,4.63
848,255,담소두부,37.6397276,127.0106141,서울 강북구 삼각산로 57,209,200,4.41
849,256,연포생선구이전문점,37.6317654,127.0249000,서울 강북구 덕릉로28길 65,583,700,4.44
850,257,라홍방마라탕 미아역점,37.6265262,127.0253736,서울 강북구 도봉로53길 7 1층 101호,88,~100,
851,259,쿄우,37.6360051,127.0281238,서울 강북구 오패산로 389,139,300,4.47
852,260,시골쌈밥,37.6623067,127.0111285,서울 강북구 삼양로173길 21-8 시골쌈밥,286,600,4.38
853,261,봄타코,37.6463675,127.0077701,서울 강북구 4.19로 60 대로변 1층,152,800,4.83
854,262,귀품찬 숯불갈비 수유직영점,37.6364727,127.0235422,서울 강북구 도봉로 313 효성인텔리안오피스텔 2층,768,400,4.34
855,263,고집통가낙지명가,37.6129878,127.0307849,서울 강북구 도봉로10길 6 2층,391,100,4.13
856,264,수유리우동집 본점,37.6345821,127.0242399,서울 강북구 덕릉로 94,"1,048",400,4.35
857,265,하나스,37.6127472,127.0311057,서울 강북구 도봉로8길 15 지하1층,168,600,4.56
858,266,엄마손기사식당 수유본점,37.6462868,127.0185278,서울 강북구 한천로 1138,626,900,4.32
859,267,왕십리곱창,37.6426289,127.0234369,서울 강북구 한천로 1078-1 A동 1층,60,~100,
860,268,도너츠윤 덕성여대점,37.6503541,127.0135324,서울 강북구 삼양로 530,51,~100,
861,269,아웃백스테이크하우스 미아점,37.6146006,127.0305324,서울 강북구 도봉로 62 롯데백화점 9층,"3,518",200,4.43
862,270,던킨 24H 강북구청사거리,37.6392944,127.0274084,서울 강북구 도봉로 358 (번동) 1층 102호(번동),"3,819",~100,4.42
863,271,베이징양꼬치,37.6133984,127.0314445,서울 강북구 오패산로31길 47,205,100,4.58
864,272,J's Park,37.6445619,127.0050603,서울 강북구 4.19로 93 1층,412,"1,000",4.36
865,273,슬로핸드,37.6497999,127.0122319,서울 강북구 삼양로141길 15-8 73~77,157,"1,000",4.85
866,274,신사랑매운갈비찜 수유점,37.6387220,127.0237051,서울 강북구 노해로8가길 14,487,500,4.34
867,275,삼성곱창,37.6126590,127.0320399,서울 강북구 월계로7나길 32,294,300,4.43
868,276,붉은대게 수유본점,37.6380569,127.0230579,서울 강북구 노해로 28,184,300,4.43
869,277,삼덕식당 수유점,37.6389934,127.0256180,서울 강북구 한천로139길 29 1층,577,400,4.4
870,279,시장떡복이,37.6403382,127.0211700,"서울 강북구 노해로17길 21 , 수유중앙시장 1층",86,900,4.33
871,280,천태막국수,37.6146599,127.0309935,서울 강북구 도봉로10길 46 1층,311,400,4.57
872,281,은행골 수유점,37.6397497,127.0261054,서울 강북구 한천로139길 10 1층,619,500,4.44
873,282,목포돌구이삼겹살,37.6608737,127.0133125,서울 강북구 삼양로 649,147,300,4.61
874,283,초가집,37.6621140,127.0062329,서울 강북구 삼양로173길 116-28,69,800,4.55
875,284,비 커피,37.6163486,127.0290662,서울 강북구 도봉로15길 11 1층,175,400,4.55
876,285,스타벅스 파라스파라서울점,37.6643800,127.0085664,서울 강북구 삼양로 689-1,993,800,4.32
877,286,김치삼겹살,37.6388066,127.0240057,서울 강북구 도봉로87길 27-4,194,200,4.41
878,287,수유곱창 대찬식당,37.6397181,127.0246716,서울 강북구 한천로139나길 20 1층,182,300,4.92
879,288,스시다네 수유점,37.6380808,127.0270025,서울 강북구 한천로131길 29,399,300,4.22
880,289,문어여기,37.6377277,127.0234572,서울 강북구 도봉로83길 21 1층,47,~100,4.45
881,290,본죽 수유사거리점,37.6338483,127.0231479,서울 강북구 도봉로 285,401,~100,4.46
882,291,파크 689,37.6649461,127.0076861,서울 강북구 삼양로 689 파라스파라 서울 114동 1층,20,~100,
883,292,석참치,37.6156437,127.0310386,서울 강북구 도봉로10길 66 3층,63,100,4.59
884,293,육달포 소한마리 수유본점,37.6349570,127.0249132,서울 강북구 덕릉로 101,196,200,4.43
885,294,맥도날드 서울번동DT점,37.6211878,127.0452758,서울 강북구 월계로 191,"6,959",200,4.3
886,295,돝제주흑돼지,37.6184918,127.0246405,서울 강북구 솔샘로 289 1층 돝제주흑돼지,158,"3,000",4.56
887,296,칠복상회,37.6401471,127.0253582,서울 강북구 한천로139가길 15 1층,260,"2,000",4.56
888,297,스시마차,37.6120376,127.0319596,서울 강북구 도봉로8길 38 지층,32,100,
889,298,홍가네가마솥설렁탕,37.6471069,127.0165361,서울 강북구 한천로 1157 1층,237,~100,4.32
890,299,OK능이마을 수유점,37.6407505,127.0153862,서울 강북구 삼각산로 101 삼미빌딩,103,~100,4.15
891,0,광선집 돼지특수부위전문,37.5308449,126.8496171,서울 강서구 곰달래로 149 소망빌딩 1층,"1,009","6,000",4.85
892,1,금성회관 마곡점,37.5594880,126.8346780,서울 강서구 공항대로 247 1층,161,100,
893,2,유림 강서점,37.5478715,126.8717884,서울 강서구 공항대로71길 5 유림,"2,496","24,000",4.33
894,3,수하동 마곡점,37.5601919,126.8327343,서울 강서구 마곡동로3길 6 NY타워 1층 104~106호,494,800,4.44
895,4,옥소반 마곡본점,37.5605458,126.8327281,"서울 강서구 마곡중앙6로 45 1층 123,124호","2,465","9,000",4.58
896,5,돼슐랭 마곡나루점,37.5678531,126.8275104,서울 강서구 마곡중앙로 161-1 102호,145,400,
897,6,두꺼비숙성횟집 마곡점,37.5602253,126.8377735,서울 강서구 마곡중앙6로 93 열린프라자 1층 112호,233,"1,000",4.49
898,7,어나더사이드,37.5540874,126.8370578,서울 강서구 강서로 318 1층 카페 어나더사이드,735,"15,000",
899,8,샐러드식당 등촌본점,37.5373781,126.8632472,서울 강서구 등촌로 83 1층 샐러드식당 등촌본점,745,"1,000",
900,9,발산삼계탕,37.5563256,126.8377979,서울 강서구 강서로 344,"2,045","3,000",4.45
901,10,방화동 교동짬뽕,37.5774117,126.8157736,서울 강서구 금낭화로24나길 21 이루미팰리스 101호,995,"12,000",4.41
902,11,조연탄,37.5309023,126.8632392,서울 강서구 곰달래로60길 29 조연탄,722,"15,000",4.61
903,12,공항칼국수,37.5609082,126.8091224,서울 강서구 공항대로 18-1 이스카이오피스텔 지하1층,"3,275","11,000",4.38
904,13,인라이크,37.5685901,126.8228069,서울 강서구 양천로30길 103,371,"3,000",4.63
905,14,딘타이펑 김포롯데몰점,37.5633203,126.8031140,서울 강서구 하늘길 38 롯데몰김포공항점 B2층,"2,802","1,000",4.34
906,15,자이온,37.5514069,126.8660986,서울 강서구 공항대로61길 10-11,"2,681","10,000",4.67
907,16,오봉집 발산본점,37.5598716,126.8353531,서울 강서구 마곡동로4길 15 2층,"2,329","10,000",4.64
908,17,고성막국수,37.5774865,126.8161360,서울 강서구 방화대로49길 6-7,887,"18,000",4.19
909,18,헤리스헤이스,37.5601250,126.8303708,서울 강서구 마곡동로3길 26 103호,819,"10,000",4.69
910,19,가랑삼계탕,37.5605538,126.8338901,서울 강서구 마곡동로 62 마곡사이언스타워 3층 가랑삼계탕,401,600,4.45
911,20,금고깃집 마곡본점,37.5604919,126.8332173,"서울 강서구 마곡동로 61 109호,203-205호","1,518","10,000",4.45
912,21,밀화당 강서직영점,37.5586859,126.8337720,서울 강서구 공항대로 236 쿠쿠빌딩 1층,440,300,
913,22,엘리케이커,37.5673431,126.8269959,서울 강서구 마곡중앙5로 6 보타닉푸르지오시티 지하 1층 143호 엘리케이커,62,700,
914,23,스몰 스파이시 올리브,37.5580029,126.8295065,서울 강서구 마곡중앙4로 22 B동 1층 111호,143,"3,000",4.96
915,24,등촌 최월선칼국수,37.5560116,126.8566894,서울 강서구 화곡로64길 68,"2,515","15,000",4.44
916,25,마부자생삼겹살,37.5673649,126.8263482,서울 강서구 마곡중앙5로 6 1층 121호,"1,476","9,000",4.35
917,26,호호방,37.5676497,126.8272142,서울 강서구 마곡중앙로 161-1 마곡나루 캐슬파크 1층 115호,171,"4,000",4.69
918,27,광주똑순이아구찜,37.5593585,126.8378519,서울 강서구 강서로 375-8,"1,585","5,000",4.37
919,28,돈탐구소,37.5609528,126.8285658,서울 강서구 마곡중앙6로 11 128호,54,"11,000",
920,29,꽈페 마곡점,37.5605709,126.8332381,서울 강서구 마곡동로 61 제1동 107호,49,200,
921,30,마곡테이블,37.5605250,126.8343416,서울 강서구 마곡중앙6로 63,413,"6,000",4.48
922,31,소바트럭,37.5585629,126.8565412,서울 강서구 화곡로68길 36 에이스에이존,397,"1,000",
923,32,경아식당 본점,37.5601954,126.8368109,서울 강서구 마곡중앙6로 85 1층 103호,"2,094","11,000",4.75
924,33,냐항바바바,37.5571236,126.8541314,서울 강서구 화곡로64길 16,"1,010","5,000",4.52
925,34,한옥집김치찜 롯데몰김포공항점,37.5631570,126.8028638,서울 강서구 하늘길 38 롯데몰 김포공항점 GF층,740,100,4.23
926,35,빵쌤 마곡점,37.5589452,126.8259105,"서울 강서구 마곡중앙로 59-5 마곡595빌딩 1, 2층","4,274","4,000",4.42
927,36,구락,37.5606312,126.8327206,서울 강서구 마곡중앙6로 45 리더스퀘어 2층 구락,402,"2,000",4.53
928,37,르와조,37.5595688,126.8339550,서울 강서구 공항대로 237 에이스타워 120호,347,"3,000",4.62
929,38,아그라 김포점,37.5630781,126.8031278,서울 강서구 하늘길 38 롯데몰 김포공항점 MF층 아그라,"1,689",800,4.37
930,39,이조면옥,37.5683668,126.8421829,서울 강서구 양천로 353,"3,348","3,000",4.27
931,40,오유미당 마곡점,37.5597455,126.8345324,서울 강서구 마곡중앙6로 66 퀸즈파크텐 1층 B동 120호,"1,304","6,000",
932,41,묵자식당,37.5415438,126.8426220,서울 강서구 까치산로 16-1 1층 묵자식당,316,"1,000",4.52
933,42,꾸이꾸이 돼지촌 쭈꾸미 본점,37.5676682,126.8141411,서울 강서구 초원로 77,910,"8,000",
934,43,빠레뜨한남 마곡점,37.5605807,126.8379530,서울 강서구 마곡중앙8로 90 마곡아이파크 1층 115~116호,"1,109","2,000",4.62
935,44,토끼정 롯데몰김포공항,37.5636855,126.8029580,서울 강서구 하늘길 38 (방화동) 롯데몰김포공항점 MF층,"1,920",600,
936,45,청계,37.5600180,126.8351981,서울 강서구 마곡동로4길 15 1층,199,500,4.58
937,46,가마메시야 울림,37.5603074,126.8274198,서울 강서구 마곡중앙로 76 힐스테이트에코 마곡역 1층 4번게이트 126호,354,"12,000",4.19
938,47,경복궁삼계탕 마곡점,37.5589501,126.8313885,서울 강서구 공항대로 212 퀸즈파크11 A동 1층 공항대로변,206,100,
939,48,띠아낭,37.5559325,126.8568939,서울 강서구 화곡로64길 72 1층 띠아낭,"1,019","9,000",4.63
940,49,목동분식,37.5493082,126.8342624,서울 강서구 강서로45라길 36,406,"6,000",4.38
941,50,신세계포차,37.5607087,126.8367813,서울 강서구 마곡중앙8로 86 1층 105호,529,600,4.6
942,51,가능식당,37.5690724,126.8271388,서울 강서구 마곡중앙로 161-8 두산더랜드파크 D동 203호,478,"1,000",4.75
943,52,신선,37.5605538,126.8338901,서울 강서구 마곡동로 62 마곡 사이언스 타워 208호,339,700,4.27
944,53,묘프 마곡,37.5606312,126.8327206,서울 강서구 마곡중앙6로 45 리더스퀘어 A동 303호,64,600,
945,54,조선제일빵,37.5432674,126.8434979,서울 강서구 초록마을로2길 48,563,700,4.49
946,55,능라도 마곡점,37.5598891,126.8337079,서울 강서구 마곡동로 56 건와빌딩 2층,668,"2,000",4.34
947,56,계단라멘 마곡점,37.5601077,126.8320824,서울 강서구 마곡중앙6로 42 122호,90,500,
948,57,더메이드뷔페,37.5608356,126.8296186,서울 강서구 마곡중앙6로 21 이너매스 4층,"2,763","2,000",4.37
949,58,화곡미담분식 까치산점,37.5295334,126.8468994,서울 강서구 강서로7길 15,"1,534","1,000",4.46
950,59,애슐리퀸즈 롯데백화점 김포공항점,37.5632505,126.8030946,서울 강서구 하늘길 38 롯데백화점 5층 애슐리퀸즈,"2,873",300,4.13
951,60,방이옥,37.5600490,126.8343014,서울 강서구 마곡중앙6로 66 1층 104호,235,"1,000",
952,61,송쭈집 마곡,37.5680891,126.8254241,서울 강서구 마곡서로 158 센트럴타워2차 2층 송쭈집 마곡나루점,748,"1,000",4.52
953,62,망향비빔국수 강서점,37.5492156,126.8756845,서울 강서구 양천로 720 유동빌딩1층 망향비빔국수강서점(염창역1번출구 400m),"3,238","2,000",
954,63,연립,37.5688514,126.8273386,서울 강서구 마곡중앙로 161-8 A113호,49,700,
955,64,꼼떼 바베큐 마곡점,37.5680969,126.8265107,서울 강서구 마곡중앙로 161-11 라마다앙코르호텔 지하1층,"2,584","3,000",4.6
956,65,코지로 오모테나시,37.5677553,126.8256412,서울 강서구 마곡서로 152 두산더랜드타워 2층,367,"9,000",4.51
957,66,서울홍성원,37.5587356,126.8303153,서울 강서구 공항대로 206 나인스퀘어 2층,"1,121","4,000",4.45
958,67,변두리 로바타,37.5599940,126.8341274,서울 강서구 마곡중앙6로 66 201호,165,"1,000",4.83
959,68,칼스토랑,37.5551162,126.8185812,서울 강서구 방화대로6라길 2,"1,135","2,000",4.45
960,69,fleuve bakery,37.5323280,126.8445572,서울 강서구 강서로15길 26 1층,319,"1,000",4.85
961,70,화곡영양족발,37.5432636,126.8434604,서울 강서구 초록마을로2길 48 1층 화곡영양족발,"6,368","9,000",4.42
962,71,고양이똥,37.5520481,126.8646393,서울 강서구 공항대로59가길 13,812,"5,000",4.37
963,72,일편등심 마곡나루점,37.5690324,126.8277846,서울 강서구 마곡중앙로 171 프라이빗타워 2차 2층(미락식당 앞) / 하남돼지건물,78,100,
964,73,발산한우진곱창,37.5609894,126.8384600,서울 강서구 강서로 395 1층 109~110호,408,"2,000",4.53
965,74,백소정 마곡역점,37.5585060,126.8295421,서울 강서구 마곡중앙4로 22 파인스퀘어 A동 2층 212호,"1,543","2,000",4.7
966,75,Poke all day 포케&샐러드 마곡점,37.5596114,126.8372423,서울 강서구 공항대로 269-15 힐스테이트에코마곡상가 2층 205호,531,400,
967,76,위카페 아임2030 등촌,37.5518472,126.8645485,서울 강서구 공항대로59가길 14 아임2030 청년주택 1층,"1,402","1,000",4.66
968,77,바스버거 마곡점,37.5605538,126.8338901,서울 강서구 마곡동로 62 마곡사이언스타워 1층,986,"2,000",4.45
969,78,도라무통즉석떡볶이,37.5309330,126.8510999,서울 강서구 곰달래로 163,494,"2,000",4.55
970,79,커디,37.5606962,126.8368012,서울 강서구 마곡중앙8로 86 204호,117,"1,000",4.85
971,80,목로주점1987,37.5679674,126.8267460,서울 강서구 마곡중앙로 161-11 A동 107호,295,"2,000",4.43
972,81,봄담아,37.5589748,126.8247038,서울 강서구 마곡중앙로 59-17 118~122호 1층,"1,235","1,000",4.67
973,82,더숲,37.5590817,126.8291767,서울 강서구 공항대로 194 퀸즈파크12 1층,539,"4,000",4.65
974,83,세광양대창 발산점,37.5600358,126.8373552,서울 강서구 마곡중앙6로 89 1동 1층,707,"1,000",4.59
975,84,서민돼지 발산점,37.5592112,126.8393353,서울 강서구 강서로54길 11 나동 1층,269,"2,000",4.64
976,85,하양옥,37.5590656,126.8282171,서울 강서구 공항대로 186 1층 118호,249,"8,000",4.54
977,86,카츠온도,37.5670117,126.8397312,서울 강서구 마곡동로10길 46 1층 110호 카츠온도,56,100,
978,87,베이커리룬,37.5590948,126.8362971,서울 강서구 공항대로 261 발산파크프라자10,"1,502","6,000",4.71
979,88,유미카츠 마곡점,37.5587997,126.8294321,"서울 강서구 공항대로 200 1층 117, 118호 유미카츠 마곡점","1,037","1,000",
980,89,블리스냅,37.5709947,126.8225433,서울 강서구 양천로30길 50 블리스냅,266,"6,000",4.72
981,90,브런치팩토리,37.5577588,126.8269590,서울 강서구 마곡중앙로 36,702,"2,000",4.46
982,91,청기와타운 마곡점,37.5588255,126.8400208,서울 강서구 공항대로 291 2층 201~204호,260,900,
983,92,마곡삼계탕,37.5593135,126.8352391,서울 강서구 공항대로 247 2충,654,300,4.44
984,93,원조나주곰탕,37.5726750,126.8100380,서울 강서구 양천로14길 10,"1,094","8,000",4.46
985,94,백소정 발산역점,37.5600715,126.8341809,서울 강서구 마곡중앙6로 66 퀸즈파크텐 A동 2층 203호,635,"3,000",4.44
986,95,후라토식당 발산역점,37.5596114,126.8372423,서울 강서구 공항대로 269-15 2층 211호,"1,023","3,000",4.56
987,96,타르데마베이커리 우장산점,37.5508788,126.8369648,서울 강서구 강서로46길 9 5호선 우장산역 1번출구쪽으로 나와서 하늘빛교회전 동물병원 골목으로 올라오시면 바로 보입니다.,"1,182","14,000",4.47
988,97,헝그리 부처,37.5589935,126.8307062,서울 강서구 공항대로 212 퀸즈파크 11차 133~135호(1층),54,200,
989,98,바코,37.5682660,126.8403595,서울 강서구 양천로 344 대방디엠씨티 1차 1층 107-2호,155,"5,000",4.73
990,99,샤브20 발산역점,37.5590778,126.8365432,서울 강서구 공항대로 261 2층 205호,"1,393","2,000",4.5
991,100,도화림 마곡점,37.5590299,126.8290502,서울 강서구 공항대로 194 퀸즈파크12차 2층,37,~100,
992,101,OBPC마곡점,37.5604942,126.8344884,서울 강서구 마곡중앙6로 63 테크노타워1 1층 108호,287,"2,000",4.68
993,102,Rest747,37.5600455,126.8198447,서울 강서구 마곡중앙1로 72 엠밸리10단지 상가 1층 104호,577,"1,000",4.5
994,103,매운집,37.5688514,126.8273386,서울 강서구 마곡중앙로 161-8 두산더랜드파크 D동 1층 102호,387,"1,000",4.71
995,104,스시금강 마곡,37.5602143,126.8325895,서울 강서구 마곡동로3길 6 NY타워 1층 102호 스시금강 마곡,151,"5,000",
996,105,나라구한닭 정통닭갈비,37.5592380,126.8389826,서울 강서구 강서로 378 1층 105호,411,400,4.47
997,106,미도인 마곡,37.5599534,126.8327201,"서울 강서구 마곡동로3길 6 1층 110, 111호",701,"14,000",4.48
998,107,아웃백스테이크하우스 공항점,37.5604097,126.8295209,서울 강서구 마곡중앙6로 16 3층,"5,193",900,4.43
999,108,뚜스뚜스 TousTous 등촌점,37.5585012,126.8575705,서울 강서구 공항대로45길 92,"3,088","2,000",4.33
1000,109,사쿠라테이엔 마곡나루점,37.5692137,126.8273583,서울 강서구 마곡중앙로 161-8 두산더랜드파크 B동 1층 115호,574,"4,000",
1001,110,서울미트볼 가양역점,37.5594262,126.8550582,서울 강서구 화곡로68길 15 아벨테크노 108호,696,800,4.45
1002,111,리키커피숍,37.5592015,126.8123910,서울 강서구 공항대로8길 41,35,700,
1003,112,비건식당 공간녹음,37.5595966,126.8327721,서울 강서구 공항대로 227 403호 마곡센트럴타워 1차,321,"4,000",4.54
1004,113,사위식당 마곡점,37.5596439,126.8329641,서울 강서구 공항대로 227 1층 112호,867,"3,000",
1005,114,미분당 마곡점,37.5609490,126.8298822,서울 강서구 마곡중앙6로 21 이너매스마곡1 1층 119호,992,"1,000",4.56
1006,115,도일처,37.5619625,126.8077017,서울 강서구 개화동로 567,701,"6,000",
1007,116,저-집,37.5555114,126.8571802,서울 강서구 공항대로51길 17-10 1층 저-집,173,"4,000",4.9
1008,117,어보블커피,37.5703764,126.8153075,서울 강서구 양천로24길 66 1층,19,"1,000",4.71
1009,118,타이투고,37.5606734,126.8326041,서울 강서구 마곡중앙6로 45 마곡리더스퀘어 115호 타이투고,469,"2,000",4.37
1010,119,루브레드,37.5559949,126.8568410,서울 강서구 화곡로64길 70,"1,186","3,000",4.57
1011,120,청산별곡 발산점,37.5581233,126.8397804,서울 강서구 공항대로 290 2층 청산별곡,513,"9,000",
1012,121,도쿄빙수 마곡나루역점,37.5678657,126.8274534,서울 강서구 마곡중앙로 161-1 217호,270,400,4.33
1013,122,돌배기집 강서구청점,37.5539143,126.8521387,서울 강서구 공항대로46길 47 다원빌딩 1층 돌배기집 강서구청점,687,900,4.49
1014,123,아이스걸크림보이 마곡점,37.5605220,126.8348012,서울 강서구 마곡중앙6로 65 108호 아이스걸크림보이 마곡점,293,"1,000",4.72
1015,124,키누카누,37.5592730,126.8346956,"서울 강서구 공항대로 247 퀸즈파크나인 b103, b104호","3,561","5,000",4.3
1016,125,구름그림자,37.5596438,126.8460441,서울 강서구 공항대로41길 44 아카데미 프라자 109호,112,300,4.77
1017,126,상무초밥 등촌점,37.5513387,126.8649904,"서울 강서구 공항대로 525 1층 102-1호, 102-2호","1,491","1,000",
1018,127,팥장군,37.5309067,126.8503372,서울 강서구 곰달래로 155-1,506,"1,000",4.36
1019,128,오토김밥 마곡점,37.5581305,126.8295209,서울 강서구 마곡중앙4로 22 파인스퀘어 B동 114호,63,300,
1020,129,맛있고등어,37.5404989,126.8371172,서울 강서구 화곡로 138 1층 맛있고등어,301,300,
1021,130,육갑식당 염창점,37.5473217,126.8770157,서울 강서구 공항대로 649 1층 102호,406,600,4.72
1022,131,오프레스트 로스터리,37.5541288,126.8636482,서울 강서구 공항대로59길 64 상가1동 오프레스트 로스터리 카페,234,"2,000",
1023,132,테이퍼드커피,37.5587506,126.8567799,서울 강서구 화곡로68길 47 1층 테이퍼드커피,424,"1,000",
1024,133,윤카츠,37.5601745,126.8551292,서울 강서구 화곡로 416 더스카이밸리5차 지식산업센터 2층 215호 윤카츠,669,500,4.57
1025,134,오지오커피,37.5598152,126.8314970,"서울 강서구 공항대로 213 115호, 116호",451,"6,000",
1026,135,헤이더그린,37.5415516,126.7943394,서울 강서구 대장로 58,612,"13,000",4.16
1027,136,배진수스시,37.5598385,126.8358391,서울 강서구 마곡중앙6로 76-3 1층,"1,085","2,000",4.35
1028,137,더 왓에버,37.5581733,126.8283506,서울 강서구 마곡중앙2로 15 1층 115-119호(테크노타워2),211,"1,000",
1029,138,서가앤쿡 마곡점,37.5600550,126.8330236,서울 강서구 마곡동로 55 마커스빌딩 2층,"1,196",600,4.37
1030,139,설화랑 발산역점,37.5596035,126.8379522,서울 강서구 강서로 381-7 예원빌딩 2층,283,"2,000",4.52
1031,140,정일품 삼계탕,37.5519397,126.8642979,서울 강서구 공항대로59가길 10 2층 정일품삼계탕,310,200,4.24
1032,141,우미마토,37.5594691,126.8322945,서울 강서구 공항대로 219 센테니아 114호,254,"2,000",4.69
1033,142,슬로우 인 샐러드&치폴레,37.5677420,126.8261196,서울 강서구 마곡서로 152 B동 1층 110호 SLOWIN,253,800,4.61
1034,143,체르보,37.5415699,126.8415777,서울 강서구 화곡로 176-17 2층 체르보,276,600,4.62
1035,144,가온밀면&돼지국밥,37.5602189,126.8325378,서울 강서구 마곡동로3길 6 NY타워 1층 101호,425,700,4.33
1036,145,이가 바지락 손칼국수,37.5625950,126.8517790,서울 강서구 양천로 460,"1,455","3,000",4.19
1037,146,배진수어시장,37.5599134,126.8343193,서울 강서구 마곡중앙6로 66 지하1층,458,"1,000",4.31
1038,147,녹지,37.5594436,126.8348632,서울 강서구 공항대로 247 퀸즈파크나인 B동 131호,186,"3,000",4.91
1039,148,보스 간장게장 서울식물원점,37.5693702,126.8350745,서울 강서구 마곡동로 161 서울식물원 4층,211,400,4.58
1040,149,프레베리 케이크,37.5595542,126.8363486,서울 강서구 마곡동로4길 23 1층,974,"5,000",4.65
1041,150,플립커피로스터스,37.5606312,126.8327206,서울 강서구 마곡중앙6로 45 리더스퀘어 B동 1층 118호,392,"2,000",4.58
1042,151,필돈,37.5597893,126.8340911,서울 강서구 마곡중앙6로 66 1층 112호,263,"1,000",4.81
1043,152,해성식당,37.5544591,126.8539265,서울 강서구 까치산로 193-13 1층,263,"3,000",4.39
1044,153,금보 누룽지삼계탕누룽지백숙,37.5305914,126.8495832,서울 강서구 곰달래로 150,278,100,4.49
1045,154,쿠마데 마곡점,37.5599173,126.8357282,서울 강서구 마곡중앙6로 76-3 인터시티호텔1층 104~105호,579,"2,000",4.57
1046,155,일식비 마곡점,37.5606178,126.8331596,서울 강서구 마곡동로 61 에이스프라자 3층 일식비,160,600,4.36
1047,156,셉스라운지 마곡점,37.5606312,126.8327206,"서울 강서구 마곡중앙6로 45 201호(2층, 셉스라운지)",164,"1,000",
1048,157,본대가 발산점,37.5588732,126.8377231,서울 강서구 공항대로 271 이천이프라자 2층,646,400,4.73
1049,158,고드니,37.5676315,126.8274024,서울 강서구 마곡중앙로 161-1 캐슬파크 2층 220호,279,"5,000",4.82
1050,159,팡오뉴.등촌점,37.5372702,126.8631750,서울 강서구 등촌로 81 지하1층,691,800,4.38
1051,160,잔잔하게,37.5680891,126.8254241,서울 강서구 마곡서로 158 센트럴타워2 3층 301호 잔잔하게,86,"1,000",
1052,161,헤븐온탑 김포공항점,37.5623129,126.8012785,서울 강서구 하늘길 77 롯데몰 김포공항점 지하2층,"1,458",600,4.29
1053,162,앵글드,37.5714560,126.8080257,서울 강서구 양천로10길 38 103동 상가 101호,650,"1,000",4.79
1054,163,랑 월,37.5599134,126.8343193,서울 강서구 마곡중앙6로 66 퀸즈파크텐 206호,441,"2,000",4.53
1055,164,젠틀한식탁 강서점,37.5472663,126.8331367,서울 강서구 강서로45길 49-38 1층 프롬바인,182,"1,000",4.72
1056,165,카페 우드진,37.5606262,126.8327269,서울 강서구 마곡중앙6로 45 카페 우드진,500,"5,000",4.43
1057,166,우학면옥,37.5592607,126.8363876,서울 강서구 공항대로 261 발산파크프라자(민병철어학원 건물) 2층 208호,644,900,4.25
1058,167,쭈퐁 등촌본점,37.5569329,126.8557677,서울 강서구 공항대로45길 44 청림오피스텔 1층 쭈퐁,445,900,4.41
1059,168,육탕상점,37.5401445,126.8418116,서울 강서구 강서로 148,286,"1,000",4.6
1060,169,송식당,37.5686609,126.8390374,서울 강서구 마곡동로10길 23 135호 1층,211,"1,000",4.65
1061,170,우니크,37.5600782,126.8326544,서울 강서구 마곡동로3길 6 NY타워 11층,539,"7,000",4.63
1062,171,해바라기정육식당 화곡점,37.5307852,126.8485951,서울 강서구 곰달래로 141,"1,233","1,000",4.59
1063,172,마곡관,37.5691361,126.8271291,서울 강서구 마곡중앙로 161-8 두산더랜드파크 D동 103호,292,900,4.76
1064,173,고71집,37.5596431,126.8361991,"서울 강서구 마곡동로4길 23 호텔 루체브릿지 2층, 203호",98,"1,000",4.63
1065,174,봉이밥,37.5689175,126.8279313,"서울 강서구 마곡중앙로 171 프라이빗타워2차 1층 103,104호",910,"5,000",4.46
1066,175,발산회관,37.5614319,126.8394240,서울 강서구 강서로 402 재영빌딩 1층,701,"4,000",4.65
1067,176,파스타인카페,37.5580725,126.8286803,서울 강서구 마곡중앙2로 15 테크노타워2 201호,482,700,4.77
1068,177,바운티,37.5565092,126.8197739,서울 강서구 방화대로6바길 49 상가 1층 바운티,19,~100,
1069,178,일편등심 마곡점,37.5601357,126.8376979,서울 강서구 마곡중앙6로 93 열린프라자 3층 301호,463,"1,000",4.8
1070,179,옛날한우곱창전문 본점,37.5532496,126.8637776,서울 강서구 공항대로59길 36,599,"3,000",4.37
1071,180,야르르,37.5584781,126.8326019,서울 강서구 공항대로 228 리더스타워 117호,81,100,
1072,181,속초그바람에 발산본점,37.5594275,126.8393628,서울 강서구 강서로54길 11,"1,082","1,000",4.48
1073,182,강대표떡갈비,37.5440581,126.8441102,서울 강서구 초록마을로2길 26 1층,43,~100,
1074,183,우마이동,37.5602455,126.8368847,서울 강서구 마곡중앙6로 85 2층 203호,176,"1,000",4.44
1075,184,도쿄화로 본점,37.5530637,126.8536065,서울 강서구 까치산로 180,117,"3,000",4.54
1076,185,완미족발 서울마곡점,37.5587805,126.8274495,"서울 강서구 마곡중앙2로 5 메트로비즈타워, 103호",29,100,
1077,186,밀회관 마곡나루점,37.5681391,126.8270489,서울 강서구 마곡중앙로 161-11,257,"1,000",4.33
1078,187,상 생삼겹살,37.5692146,126.8272703,서울 강서구 마곡중앙로 161-8 두산더랜드파크 B동1층113호,534,"1,000",4.7
1079,188,대림국수 마곡점,37.5603355,126.8352466,서울 강서구 마곡중앙6로 69 세움빌딩 1층 104호,441,"2,000",4.49
1080,189,79파운야드 마곡점,37.5600070,126.8345055,서울 강서구 마곡중앙6로 66 퀸즈파크텐 1층 107호,759,"2,000",4.43
1081,190,움라우트 카페,37.5438181,126.8375721,서울 강서구 강서로33가길 52 1층,94,200,
1082,191,웜테이블,37.5553016,126.8572289,서울 강서구 공항대로49길 5-17 1층,283,"2,000",4.58
1083,192,식껍 마곡나루직영점,37.5684474,126.8272532,서울 강서구 마곡중앙로 161-8 두산더랜트파크 c동 114호 식껍 마곡나루점,367,600,4.54
1084,193,또보겠지떡볶이집 숲속동화점,37.5605121,126.8324416,서울 강서구 마곡중앙6로 45 리더스퀘어마곡 2층 214호,220,900,
1085,194,사또주먹고기 화곡본점,37.5366000,126.8370124,서울 강서구 가로공원로76길 10,248,600,4.7
1086,195,빅소이,37.5573830,126.8584348,서울 강서구 화곡로68길 82 강서아이티밸리,304,"1,000",4.48
1087,196,전본부,37.5596955,126.8353625,서울 강서구 마곡동로4길 15,128,200,4.67
1088,197,바삭하게,37.5595690,126.8337122,서울 강서구 공항대로 237 1층,737,"1,000",4.4
1089,198,연남토마 롯데몰 김포공항점,37.5641778,126.8045751,서울 강서구 하늘길 38 MF층,527,300,
1090,199,레피큐르,37.5593135,126.8352391,서울 강서구 공항대로 247 퀸즈파크9 A동 205호,184,"5,000",
1091,200,촌놈숯불닭갈비 발산마곡점,37.5603189,126.8347773,서울 강서구 마곡중앙6로 65 104~105호,242,"1,000",
1092,201,스즈란테이 발산점,37.5596254,126.8376095,서울 강서구 공항대로 269-15 힐스테이트에코마곡 2층 212호,313,"3,000",4.48
1093,202,맛찬들왕소금구이 발산역점,37.5591485,126.8378572,서울 강서구 강서로 375-7,"1,069","2,000",4.39
1094,203,백두한우곱창,37.5587371,126.8398616,서울 강서구 공항대로 291 성원상떼뷰오피스텔,352,"2,000",4.42
1095,204,메이탄 강서점,37.5468606,126.8367772,서울 강서구 강서로 242 강서 힐스테이트 상가 2층 215호 메이탄,"1,070",900,4.52
1096,205,하마야도시락,37.5328536,126.8445553,서울 강서구 강서로17길 21 블리스 건물 1층 하마야 HAMAYA,135,400,4.84
1097,206,등촌누룽지통닭구이,37.5529787,126.8635090,서울 강서구 공항대로59길 29 1층 등촌누룽지 통닭구이,109,100,4.66
1098,207,탄탄면공방 마곡점,37.5597384,126.8372191,서울 강서구 공항대로 269-15 에코마곡힐스테이트 1층 123호,771,"1,000",4.53
1099,208,승도리네 곱도리탕 마곡나루점,37.5684925,126.8278543,서울 강서구 마곡중앙로 165 마곡나루역프라이빗타워1차 1층 107호,396,"1,000",4.78
1100,209,매력발산,37.5606236,126.8369241,서울 강서구 마곡중앙8로 86 필네이처 202호 203호,147,700,
1101,210,사이공 윤다이,37.5685576,126.8268777,서울 강서구 마곡중앙5로1길 20 218호,715,"1,000",4.47
1102,211,토리타케 마곡본점,37.5689218,126.8391386,서울 강서구 마곡동로10길 23 2차 130호,116,400,4.6
1103,212,전주감자탕뼈해장국,37.5290800,126.8479826,서울 강서구 강서로5길 10 오션파라다이스,"2,084","2,000",4.28
1104,213,더족발 가양점,37.5627514,126.8530624,서울 강서구 양천로57길 10-20 1층,231,200,4.4
1105,214,충북식당,37.5475800,126.8356327,서울 강서구 강서로45가길 9,678,"6,000",4.39
1106,215,겸손돈가스 마곡나루점,37.5689795,126.8272756,서울 강서구 마곡중앙로 161-8 두산더랜드파크 B동 105호,254,"1,000",4.56
1107,216,북창동순두부 발산역점,37.5600412,126.8376958,서울 강서구 마곡중앙6로 93 103호,"1,127",200,4.34
1108,217,심야식당켬,37.5678657,126.8274534,서울 강서구 마곡중앙로 161-1 롯데캐슬파크 226호,84,"4,000",4.64
1109,218,홍박식당,37.5597450,126.8320756,서울 강서구 공항대로 219 홍박식당,418,"5,000",4.44
1110,220,김종용누룽지통닭 등촌점,37.5520424,126.8656558,서울 강서구 공항대로61길 21,455,900,4.51
1111,221,압구정곱창 마곡점,37.5605730,126.8375933,서울 강서구 마곡중앙8로 90 마곡아이파크오피스텔 2층,106,100,
1112,222,카츠,37.5685451,126.8260721,서울 강서구 마곡중앙로 161-22 B동 118호,338,800,4.44
1113,223,롱타임노씨 마곡점,37.5600418,126.8348979,서울 강서구 마곡중앙6로 70 매그넘797 2층 210호,430,"1,000",4.85
1114,224,드렁킨타이 마곡,37.5588441,126.8319293,서울 강서구 공항대로 220 우성에스비타워2 1층 102호,167,900,4.62
1115,225,이립,37.5599665,126.8343450,서울 강서구 마곡중앙6로 66 퀸즈파크 10 B동 211호,106,400,4.56
1116,226,와일드트리,37.5679746,126.8267210,서울 강서구 마곡중앙로 161-11 힐스테이트에코 라마다앙코르 B-101호,172,800,4.62
1117,227,바인디포 Vine Depot,37.5593135,126.8352391,서울 강서구 공항대로 247 퀸즈파크9 A동 2층 201호,161,"1,000",5
1118,228,블링크라운지,37.5596431,126.8361991,서울 강서구 마곡동로4길 23 더퍼스트스테이호텔 2층,42,900,4.79
1119,229,마초갈비 마곡점,37.5604562,126.8339514,서울 강서구 마곡동로 62 1층,568,400,4.51
1120,230,매드포갈릭 발산점,37.5585421,126.8337554,서울 강서구 공항대로 236 쿠쿠마곡빌딩 2층,"1,221",600,
1121,231,경양카츠 마곡점,37.5605409,126.8325677,서울 강서구 마곡중앙6로 45 1층 127호,699,"1,000",4.42
1122,232,다래정연탄불생고기 향교점,37.5675242,126.8421597,서울 강서구 강서로74길 17,260,400,4.45
1123,233,모던꿀꿀,37.5313278,126.8627371,서울 강서구 등촌로3길 17 1층 모던 꿀꿀,361,700,4.81
1124,234,나우니스,37.5678561,126.8269146,서울 강서구 마곡중앙로 161-11 힐스테이트에코마곡나루역 2층,215,"4,000",4.64
1125,235,카메야라멘,37.5695102,126.8411692,서울 강서구 강서로 489-4 2층,431,"1,000",4.5
1126,236,오늘의 일기,37.5443798,126.8456285,서울 강서구 초록마을로4길 2 1층,136,200,4.41
1127,237,맹순이꽃게아구찜,37.5581224,126.8377712,서울 강서구 공항대로 272 2층,"1,091",900,
1128,238,빕스 프리미어 등촌점,37.5585524,126.8422003,서울 강서구 공항대로 311 빕스(VIPS),"5,024","1,000",
1129,239,온달집 마곡발산점,37.5596670,126.8349589,서울 강서구 마곡중앙6로 70,"1,029","3,000",4.78
1130,240,마므레 크로와상,37.5595683,126.8376372,서울 강서구 공항대로 269-15 현대힐스테이트에코 1층,935,"2,000",4.61
1131,241,마곡오리,37.5726730,126.8228080,서울 강서구 양천로30길 11,415,"2,000",4.46
1132,242,오우야 에스프레소바 마곡나루점,37.5686383,126.8257852,서울 강서구 마곡중앙로 161-22 B동 117호,492,"2,000",4.64
1133,243,코끼리탭룸,37.5599525,126.8294227,서울 강서구 공항대로 195 힐스테이트에코동익 101동 1층 130호,156,"2,000",4.57
1134,244,크리스피프레시 롯데몰 김포공항점,37.5623129,126.8012785,서울 강서구 하늘길 77 롯데몰 김포공항점 MF층,5,200,
1135,245,모에뜨,37.5494177,126.8629862,서울 강서구 등촌로53길 10 천우네오젠아파트 101호,"1,101","2,000",4.53
1136,246,토리아에즈,37.5604629,126.8343943,서울 강서구 마곡중앙6로 63 마곡테크노타워 109호,176,"1,000",4.36
1137,247,진주옥,37.5577397,126.8547923,"서울 강서구 화곡로66길 20 현대센트럴가양 1층 101, 102호 진주옥",317,400,4.36
1138,248,갓덴스시 김포공항점,37.5632595,126.8029931,서울 강서구 하늘길 38 롯데몰 GF층,"2,606",600,4.35
1139,249,롤링파스타 화곡역점,37.5413073,126.8400870,서울 강서구 화곡로 166 화수빌딩 2층,215,~100,
1140,250,토끼정 마곡점,37.5599819,126.8331051,서울 강서구 마곡동로 55 마커스빌딩 2층 토끼정,"1,119","2,000",4.32
1141,251,902탭하우스 마곡나루점,37.5684731,126.8270585,서울 강서구 마곡중앙로 161-8 두산더랜드파크 c동 111호,227,600,4.51
1142,252,이태리숲,37.5607502,126.8322485,서울 강서구 마곡중앙6로 45 리더스퀘어마곡 A동 104호,176,"1,000",4.68
1143,253,와카츠,37.5331444,126.8447878,서울 강서구 강서로17길 16 1층,301,"1,000",
1144,254,마실한정식 발산점,37.5580863,126.8401402,서울 강서구 공항대로 290 201호,"1,226","1,000",4.24
1145,255,접짝집,37.5594773,126.8322366,서울 강서구 공항대로 219 1층 116호,34,900,
1146,256,탐라포차 마곡점,37.5598185,126.8352481,서울 강서구 마곡동로4길 15 2층 탐라포차,231,400,4.46
1147,257,이치류 마곡점,37.5606052,126.8318321,서울 강서구 마곡중앙6로 45 리더스퀘어 마곡 1층 101호,123,"1,000",4.52
1148,258,왕장군주먹고기,37.5710098,126.8163877,서울 강서구 방화대로 337,297,700,4.42
1149,259,곱창시대본점,37.5314721,126.8626281,서울 강서구 등촌로3길 20,162,200,4.5
1150,260,영등포구석집 마곡나루역점,37.5689745,126.8255660,서울 강서구 마곡서로 168 럭스나인오피스텔 엘동 1층 109호,50,100,
1151,261,안스베이커리 롯데백화점 김포공항점,37.5631038,126.8031321,서울 강서구 하늘길 38 김포공항 롯데몰 GF층,"9,722",800,4.4
1152,262,WAMILL,37.5685181,126.8394705,서울 강서구 마곡동로10길 23 대방디엠시티 2차 105호,428,800,4.74
1153,263,케렌시아,37.5675064,126.8259350,서울 강서구 마곡서로 152 두산더랜드타워 B동 220호,564,"2,000",4.61
1154,264,고요베이크샵,37.5318851,126.8487521,서울 강서구 강서로12길 32 상가 101동,"1,146","7,000",4.66
1155,265,타치가와텐 마곡,37.5605401,126.8289711,서울 강서구 마곡중앙6로 16 GMG타워 106호,180,700,4.49
1156,266,파스타코스,37.5588047,126.8242411,서울 강서구 마곡중앙로 59-21 에이스타워2  1층117호,34,~100,
1157,267,도쿄화로 화곡본동점,37.5445096,126.8457256,서울 강서구 초록마을로 13 1층,102,"1,000",4.37
1158,268,신촌감자탕해물뼈찜,37.5591868,126.8380891,서울 강서구 강서로 375,"1,324","1,000",4.32
1159,269,일품한우 일층집,37.5684263,126.8276859,서울 강서구 마곡중앙로 165 프라이빗타워 1차 1층,87,~100,
1160,270,타이거브루스,37.5609480,126.8288424,서울 강서구 마곡중앙6로 11 보타닉파크타워3 109호,190,"1,000",4.73
1161,271,니코니코라멘,37.5371594,126.8352681,서울 강서구 가로공원로 173 1층 니코니코라멘,86,200,
1162,272,쿠시야,37.5688514,126.8273386,서울 강서구 마곡중앙로 161-8 A동114호,22,100,4.65
1163,273,스시사라,37.5599175,126.8329727,서울 강서구 마곡동로 55 1층 101호,161,"2,000",4.48
1164,274,홍콩다방 마곡,37.5604629,126.8343943,서울 강서구 마곡중앙6로 63 마곡테크노타워 110호,440,"1,000",4.47
1165,275,악시,37.5596003,126.8326863,"서울 강서구 공항대로 227 215,216호",15,100,
1166,276,김치옥,37.5604423,126.8347643,서울 강서구 마곡중앙6로 65 지투프라자 2층,335,"2,000",
1167,277,맷돌종로빈대떡&김치찌개,37.5566584,126.8602722,서울 강서구 화곡로68길 120,135,~100,4.43
1168,278,하비커피,37.5504770,126.8720063,서울 강서구 양천로 686-8 101호 하비커피,75,400,
1169,279,풀리쿠키,37.5582828,126.8290099,서울 강서구 마곡중앙4로 22 A동 2층 215호,124,300,
1170,280,스시노백쉐프 마곡점,37.5669962,126.8170516,서울 강서구 방화대로 294,234,200,4.23
1171,281,갈비생각 발산점,37.5588342,126.8409367,서울 강서구 강서로54길 42 1층,987,"1,000",4.53
1172,282,수초밥,37.5672588,126.8176238,서울 강서구 마곡중앙5로 87,"1,785","1,000",4.44
1173,283,원조부안집 강서구청점,37.5532339,126.8520280,서울 강서구 화곡로58길 19-5 1층,651,"3,000",4.54
1174,284,도야지,37.5606262,126.8327269,서울 강서구 마곡중앙6로 45 리더스퀘어 120호,271,"1,000",4.46
1175,285,열린지혜의맛,37.5307333,126.8511500,서울 강서구 곰달래로 164 벽설빌딩,612,"1,000",4.45
1176,286,슬로우캘리 마곡점,37.5605502,126.8324423,서울 강서구 마곡중앙6로 45 1층 129호,506,"1,000",
1177,287,라무진 마곡나루점,37.5677846,126.8273267,서울 강서구 마곡중앙로 161-1 캐슬파크1층 124호,164,700,4.46
1178,288,나오키 등촌본점,37.5615720,126.8400612,서울 강서구 강서로56가길 45 1층,197,"6,000",4.35
1179,289,김삼구 김치삼겹살,37.5603523,126.8344325,"서울 강서구 마곡중앙6로 63 마곡테크노타워 1층 104호, 105호",173,200,
1180,290,동양식당,37.5687039,126.8265859,서울 강서구 마곡중앙5로1길 20 보타닉비즈타워 2층,585,"5,000",
1181,291,동래순훠궈,37.5601357,126.8376979,서울 강서구 마곡중앙6로 93 3층 307호,369,700,4.7
1182,292,양평해장국 강서마곡점,37.5584802,126.8343276,서울 강서구 공항대로 242 열린M타워 2층 212호,293,100,4.39
1183,293,다옴,37.5603376,126.8350890,서울 강서구 마곡중앙6로 69 세움빌딩 3층,364,"2,000",4.38
1184,294,올바른스시 화곡역점,37.5420034,126.8391147,서울 강서구 강서로33길 12 1층,"1,588","1,000",4.5
1185,295,양옥주점,37.5677920,126.8269156,서울 강서구 마곡중앙로 161-11 힐스테이트에코 111호~112호 양옥주점,303,"1,000",4.66
1186,296,마담주안상,37.5599153,126.8343608,서울 강서구 마곡중앙6로 66 퀸즈파크텐 210호,96,"1,000",4.77
1187,297,메이필드호텔 봉래헌,37.5478974,126.8179710,서울 강서구 방화대로 94 메이필드호텔 봉래헌,122,"2,000",4.6
1188,298,란콰이펑누들 마곡본점,37.5603677,126.8342978,서울 강서구 마곡중앙6로 63 테크노타워 1동101호,735,"1,000",
1189,299,바삭파삭,37.5673771,126.8276610,서울 강서구 마곡중앙5로 6 보타닉푸르지오시티  1층 159호,619,"1,000",4.82
1190,0,킷사서울,37.4792338,126.9537873,서울 관악구 남부순환로226길 31 2층 킷사서울,"1,749","28,000",4.37
1191,1,청기와타운 서울대점,37.4805145,126.9540895,서울 관악구 남부순환로 1838 1층,239,"1,000",
1192,2,쟝블랑제리,37.4771360,126.9619864,서울 관악구 낙성대역길 8,"16,910","44,000",4.44
1193,3,정숙성,37.4791759,126.9538181,서울 관악구 남부순환로226길 31 1층 정숙성,794,"6,000",4.72
1194,4,딸랏롯빠이,37.4774262,126.9585730,서울 관악구 관악로12길 113 대원빌딩 1층 101호,266,"4,000",4.46
1195,5,듀레스트,37.4785808,126.9552830,서울 관악구 관악로14길 50 2층,45,500,
1196,6,데일리오아시스 샤로수길점,37.4781582,126.9566108,서울 관악구 관악로14길 74-3 1층,569,"8,000",4.4
1197,7,더멜팅팟,37.4776723,126.9582421,서울 관악구 관악로14길 106 1층 (102호),358,"6,000",4.44
1198,8,낙원의소바,37.4797515,126.9530971,서울 관악구 관악로 164 1층 건물뒷편,598,"8,000",4.41
1199,9,맥주는별책부록,37.4791349,126.9521232,서울 관악구 관악로 155,175,"2,000",4.59
1200,10,텐동요츠야,37.4789941,126.9544808,서울 관악구 관악로14길 35 1층,"1,352","32,000",4.34
1201,11,카츠오도,37.4824695,126.9133869,서울 관악구 조원로16가길 51,617,"8,000",4.83
1202,12,돈뼈락연탄갈비 서울대입구역점,37.4812476,126.9540722,서울 관악구 남부순환로 1835-26 재승빌딩,291,"7,000",4.43
1203,13,막불감동,37.4842930,126.9282604,서울 관악구 남부순환로 1599,"3,027","9,000",4.65
1204,14,폼앤노말,37.4857938,126.9278689,서울 관악구 신림로67길 25 1층,375,"13,000",
1205,15,원조부안집 서울대입구역점,37.4801331,126.9538377,서울 관악구 남부순환로226길 12 1층,76,800,
1206,16,박재성의 메밀숯불닭갈비,37.4814898,126.9295120,서울 관악구 신원로 40-16 1층,769,"3,000",4.9
1207,17,삼삼당,37.4831153,126.9302501,서울 관악구 신림로 322-3 1층,"1,627","13,000",4.96
1208,18,마인드멜드,37.4790228,126.9537832,서울 관악구 관악로14길 22 2층,272,"2,000",4.89
1209,19,황홀경,37.4789724,126.9546215,서울 관악구 관악로14길 37 B1 황홀경,657,"11,000",4.44
1210,20,베이컨시,37.4778334,126.9589021,서울 관악구 봉천로62길 5 B1,424,"9,000",4.77
1211,21,복돈이 부추삼겹살,37.4751740,126.9811453,서울 관악구 남현1길 68-14 남현빌딩,"1,168","17,000",4.26
1212,22,중화요리 팔공,37.4841255,126.9371352,서울 관악구 남부순환로 1680,738,"15,000",4.43
1213,23,오월의김밥,37.4760838,126.9646138,서울 관악구 봉천로 605 102호,"2,019","29,000",4.53
1214,24,안녕부산,37.4788152,126.9549935,서울 관악구 관악로14길 45 1층,589,"11,000",4.2
1215,25,훌랄라 참숯바베큐치킨 신림역점,37.4834083,126.9296245,서울 관악구 신림로 327 1층,61,~100,
1216,26,동경산책,37.4789029,126.9542000,서울 관악구 관악로14길 30 2층,732,"20,000",4.5
1217,27,달래해장 샤로수길점,37.4784980,126.9563369,서울 관악구 관악로14길 67 1층,33,700,
1218,28,오후의 과일,37.4792402,126.9534720,서울 관악구 관악로14길 15,"1,186","14,000",4.42
1219,29,청송산오징어,37.4758114,126.9779180,서울 관악구 남현1길 8 경도빌딩,338,"17,000",4.41
1220,30,문득,37.4791429,126.9529919,서울 관악구 관악로14길 8,622,"7,000",4.5
1221,31,온돌 서울대입구점,37.4786709,126.9570246,서울 관악구 봉천로 534,956,"9,000",4.51
1222,32,제일공간,37.4794009,126.9557596,서울 관악구 봉천로 520-1 2층,149,"2,000",4.94
1223,33,논밭골 봉천점,37.4805252,126.9459936,서울 관악구 청룡길 30,479,"18,000",4.45
1224,34,온정돈까스 본점,37.4835619,126.9091304,서울 관악구 조원로 60,754,"7,000",4.23
1225,35,쥬벤쿠바 샤로수길점,37.4776818,126.9573076,서울 관악구 관악로14나길 10 1층,"1,781","16,000",4.68
1226,36,잇츠초밥,37.4698693,126.9349504,서울 관악구 신림로23길 25 1층,134,500,
1227,37,아리차이,37.4876315,126.9283111,서울 관악구 신림동길 4,"1,710","5,000",4.36
1228,38,십원집,37.4793990,126.9562010,서울 관악구 봉천로 521,223,"4,000",4.46
1229,39,만 성 찬 팅,37.4831132,126.9303156,서울 관악구 신림로 322-4 외 1필지 1층,750,"7,000",4.4
1230,40,사담,37.4798783,126.9556022,서울 관악구 남부순환로 1852 5층,342,"8,000",4.73
1231,41,슬로우모션 커피바,37.4826936,126.9528610,서울 관악구 봉천로 473-9 슬로우모션커피바,82,"3,000",4.76
1232,42,Poke all day 포케&샐러드 서울대입구점,37.4782080,126.9530099,서울 관악구 관악로12길 11 1층,174,400,
1233,43,생각보다맛있는집본점,37.4837599,126.9543069,서울 관악구 관악로 211 봉천중앙시장,679,"1,000",4.33
1234,44,진순자계란말이김밥 봉천본점,37.4812376,126.9475404,서울 관악구 청룡1길 19,"1,122","6,000",4.3
1235,45,백채김치찌개 봉천 본점,37.4812782,126.9477325,서울 관악구 청룡1길 25,203,400,4.29
1236,46,무궁화반점 관악점,37.4819871,126.9294146,서울 관악구 신원로 38 1층,66,300,
1237,47,삼백돈 돈가츠 본점,37.4779745,126.9552149,서울 관악구 남부순환로230길 48,608,"7,000",
1238,48,안밀,37.4766803,126.9651998,"서울 관악구 남부순환로 1945 1층, 안밀 安謐",256,"6,000",
1239,49,분미,37.4785053,126.9561532,서울 관악구 관악로14길 65,128,400,
1240,50,라우더커피바,37.4788869,126.9574580,서울 관악구 봉천로 535,164,"6,000",4.67
1241,51,coffee urban,37.4830015,126.9290133,"서울 관악구 신림로59길 11 2층,3층",327,400,4.3
1242,52,9ounce Burger 낙성대점,37.4772293,126.9584114,서울 관악구 관악로12길 108 1층,387,"10,000",4.46
1243,53,깡통닭갈비,37.4847935,126.9277749,서울 관악구 남부순환로 1597-14 1층,415,"6,000",
1244,54,전주익산,37.4833094,126.9287837,"서울 관악구 신림로59길 14 3층 302호, 304호",887,"4,000",4.57
1245,55,쭈앤쭈 서울대본점,37.4792455,126.9532191,서울 관악구 관악로14길 11 1층 쭈앤쭈,633,"11,000",
1246,56,심야식당테이,37.4808416,126.9546089,서울 관악구 남부순환로 1839 2층,86,"1,000",4.74
1247,57,따빠디또 디저트 따빠스바,37.4820927,126.9561231,서울 관악구 행운1길 79 따빠디또,97,"3,000",4.94
1248,58,6회말연어,37.4820318,126.9540977,서울 관악구 봉천로 485-1 진광빌딩 2층,353,800,4.46
1249,59,숙이네조개전골 서울대입구점,37.4798614,126.9549489,서울 관악구 관악로16길 41,816,"3,000",4.61
1250,60,월화고기 보라매점,37.4916240,126.9262654,서울 관악구 보라매로3길 16,"2,730","11,000",4.6
1251,61,리버벨,37.4759590,126.9763886,서울 관악구 남현2길 18 1층 리버벨,129,"9,000",4.4
1252,62,본화로,37.4836472,126.9278236,서울 관악구 남부순환로 1592-5,500,"1,000",4.68
1253,63,피자네버슬립스,37.4787016,126.9570084,서울 관악구 봉천로 534 2층,408,"8,000",4.46
1254,64,서울테이블,37.4789688,126.9540100,서울 관악구 관악로14길 28 2층,360,"9,000",4.39
1255,65,피자보이시나 서울대점,37.4779884,126.9568220,서울 관악구 남부순환로234길 31 1층 피자보이시나,501,"1,000",4.74
1256,66,모즈타파스라운지,37.4790637,126.9535394,서울 관악구 남부순환로226길 36 지하 모즈타파스라운지,"1,761","6,000",4.64
1257,67,강강술래 신림본동점,37.4846465,126.9350249,서울 관악구 남부순환로 1660,"4,866","2,000",4.37
1258,68,온고지신,37.4778912,126.9579970,서울 관악구 관악로14길 101 온고지신,602,"18,000",4.51
1259,69,멘쇼우라멘,37.4790876,126.9555646,서울 관악구 남부순환로230길 25,387,"3,000",4.41
1260,70,마이무,37.4770178,126.9586302,서울 관악구 낙성대로 22-10 1층,"2,845","16,000",4.57
1261,72,한근한방삼계탕,37.4828572,126.9436865,서울 관악구 봉천로 396,"1,043",500,4.35
1262,73,고기굽는사람들,37.4782647,126.9564207,서울 관악구 관악로14길 70 효림빌딩 106호,"2,616","5,000",4.85
1263,74,아띠85도씨베이커리,37.4788752,126.9517653,서울 관악구 쑥고개로 137,"1,028","5,000",4.43
1264,75,두리닭발 사당역본점,37.4753918,126.9808994,서울 관악구 남현3길 78 2층,533,"4,000",4.5
1265,76,친목,37.4777657,126.9585836,서울 관악구 봉천로62길 6 1층 친목,182,"8,000",
1266,77,하와이조개 신림본점,37.4828452,126.9289989,서울 관악구 신림로59길 15-6 1층 하와이조개 신림본점,744,"2,000",4.74
1267,78,이대감 명품막창,37.4815903,126.9426083,서울 관악구 장군봉1길 46,338,700,4.7
1268,79,모힝,37.4790924,126.9535237,서울 관악구 남부순환로226길 36 2층,"3,977","13,000",4.57
1269,80,기절초풍왕순대,37.4781279,126.9583940,서울 관악구 봉천로62길 2,887,"18,000",4.45
1270,81,신림춘천집 본점,37.4836256,126.9287989,서울 관악구 남부순환로 1600-8,"1,201","3,000",4.5
1271,82,시골집,37.4769129,126.9584771,서울 관악구 낙성대로 22-7,824,"5,000",4.43
1272,83,이응가츠,37.4789932,126.9539712,서울 관악구 관악로14길 28 1층,617,"1,000",4.51
1273,84,카페 라미스콘 샤로수길점,37.4779952,126.9572380,"서울 관악구 관악로14길 88 1F, 2F","1,111","8,000",4.37
1274,85,오술차 사당역점,37.4759484,126.9811803,서울 관악구 과천대로 955 3층 오술차,269,"1,000",4.42
1275,86,로향양꼬치 1호점,37.4800379,126.9545919,서울 관악구 관악로16길 35 푸르빌 아파트,"1,353","4,000",4.54
1276,87,카페신림,37.4830795,126.9277988,서울 관악구 관천로 34 카페신림,253,400,4.51
1277,88,오지 편한식당,37.4778446,126.9582726,서울 관악구 관악로14길 105 1층 오지,223,"16,000",4.51
1278,89,카츠오도 낙성대점,37.4744577,126.9672540,서울 관악구 인헌3길 5 104호,15,100,
1279,90,연하남,37.4853420,126.9302498,서울 관악구 신림로66길 10 1층,133,400,4.81
1280,91,디자이너리 카페,37.4850552,126.9241109,서울 관악구 관천로 71-1 4F,554,"11,000",4.48
1281,92,세광양대창 서울대입구점,37.4803950,126.9535081,서울 관악구 관악로16길 13 2층,434,"1,000",4.49
1282,93,은행골 본점신관,37.4833135,126.9035078,서울 관악구 조원로 10-1,"1,697","8,000",4.39
1283,94,서울갈비 신림점,37.4850204,126.9336152,서울 관악구 남부순환로 1645,"1,205","9,000",4.44
1284,95,계탄언니,37.4755188,126.9813088,서울 관악구 과천대로 951,327,"2,000",4.43
1285,96,사생활,37.4878028,126.9165271,서울 관악구 신사로14길 19 지하1층,"1,671","6,000",4.75
1286,97,부림식당,37.4813404,126.9464721,서울 관악구 청룡길 9,547,"4,000",4.31
1287,98,조선pub에디,37.4794690,126.9533153,서울 관악구 남부순환로224길 31 지하1층,171,"3,000",4.22
1288,99,뱃살도둑 관악본점,37.4826817,126.9525186,서울 관악구 봉천로 469-17 1층,"1,506","1,000",4.72
